stop_id,stop_code,stop_name,stop_lat,stop_lon,zone_id,stop_desc,stop_url,location_type,parent_station,stop_timezone,wheelchair_boarding
"7730520","7730520",2nd St W & Andrieux (Ac Son Medical Ctr),38.28869445,-122.461909,"58039","","","0","","America/Los_Angeles","0"
"7730230","7730230",2nd St W & Andrieux (Sonoma Medical Ctr),38.28804794,-122.4618134,"58039","","","0","","America/Los_Angeles","0"
"7730220","7730220",2nd St W & Bettencourt St,38.28691122,-122.4619977,"58039","","","0","","America/Los_Angeles","0"
"7730530","7730530",2nd St West & Bettencourt St,38.28674937,-122.4621864,"58039","","","0","","America/Los_Angeles","0"
"7730510","7730510",2nd St West & Hwy 12,38.29090472,-122.4615479,"58039","","","0","","America/Los_Angeles","0"
"7730240","7730240",2nd St W & Perkins St,38.28990258,-122.4615223,"58039","","","0","","America/Los_Angeles","0"
"7737100","7737100",3rd St & D St,38.4407383,-122.7111752,"58034","","","0","","America/Los_Angeles","0"
"7787000","7787000",3rd St West & Perkins St,38.28909652,-122.4639501,"58039","","","0","","America/Los_Angeles","0"
"7784100","7784100",3rd St West & Perkins St,38.28910403,-122.4640984,"58039","","","0","","America/Los_Angeles","0"
"7731100","7731100",5th St West & Andrieux St,38.2890621917,-122.468542616,"58039","","","0","","America/Los_Angeles","0"
"7729900","7729900",5th St W & W Napa,38.29227353,-122.4682875,"58039","","","0","","America/Los_Angeles","0"
"7731200","7731200",5th St W & W Napa,38.29150198,-122.4681456,"58039","","","0","","America/Los_Angeles","0"
"7725900","7725900",Ac Oakmont Golf Course,38.43266568,-122.5943358,"58038","","","0","","America/Los_Angeles","0"
"7755100","7755100",Ac Petaluma Estates MHP,38.26455448,-122.6528389,"58033","","","0","","America/Los_Angeles","0"
"7793600","7793600",Across from Rite Aid,38.6159256731,-122.8729721015,"58035","","","0","","America/Los_Angeles","0"
"7700700","7700700",Ac Santa Rosa Junior College,38.45503268,-122.7172169,"58034","","","0","","America/Los_Angeles","0"
"7701010","7701010",Administration Dr & Paulin,38.46425226,-122.7220606,"58034","","","0","","America/Los_Angeles","0"
"7715790","7715790",Administration Dr & Paulin,38.464191,-122.721779,"58034","","","0","","America/Los_Angeles","0"
"7701020","7701020",Administration Dr & Ventura,38.46416122,-122.7239988,"58034","","","0","","America/Los_Angeles","0"
"7715780","7715780",Administration Dr & Ventura Ave,38.464062,-122.723862,"58034","","","0","","America/Los_Angeles","0"
"7786400","7786400",Adobe Rd & Stage Gulch Rd,38.23621691,-122.5269582,"58039","","","0","","America/Los_Angeles","0"
"7784900","7784900",Adobe Rd & Stage Gulch Rd,38.23655957,-122.5271605,"58039","","","0","","America/Los_Angeles","0"
"7751200","7751200",Adrian Dr & Adrian Ct,38.33776349,-122.7053861,"58033","","","0","","America/Los_Angeles","0"
"7751300","7751300",Adrian Dr & Arlen Dr,38.33967798,-122.7057163,"58033","","","0","","America/Los_Angeles","0"
"7744400","7744400",Adrian Dr & Bonnie Ave,38.33212509,-122.7003778,"58033","","","0","","America/Los_Angeles","0"
"7751000","7751000",Adrian Dr & Bonnie Ave,38.33225387,-122.7005409,"58033","","","0","","America/Los_Angeles","0"
"7744300","7744300",Adrian Dr & Southwest Blvd,38.3354751848,-122.7051079273,"58033","","","0","","America/Los_Angeles","0"
"7751100","7751100",Adrian & Southwest,38.33582356,-122.7050337,"58033","","","0","","America/Los_Angeles","0"
"7727900","7727900",Agua Caliente Rd & Hwy 12,38.32550862,-122.4885654,"58039","","","0","","America/Los_Angeles","0"
"7732800","7732800",Agua Caliente Rd & Hwy 12,38.3256509,-122.4886709,"58039","","","0","","America/Los_Angeles","0"
"7732900","7732900",Agua Caliente Rd & Lake St,38.32510088,-122.4897554,"58039","","","0","","America/Los_Angeles","0"
"7727800","7727800",Agua Caliente Rd & Lake St,38.32390851,-122.4919885,"58039","","","0","","America/Los_Angeles","0"
"7733000","7733000",Agua Caliente Rd & Las Flores Dr,38.32406564,-122.4920952,"58039","","","0","","America/Los_Angeles","0"
"7712900","7712900",Airport Blvd & Aviation Blvd,38.51123813,-122.781666,"58035","","","0","","America/Los_Angeles","0"
"7714400","7714400",Airport Blvd & Aviation Blvd,38.51096137,-122.7804182,"58035","","","0","","America/Los_Angeles","0"
"7713100","7713100",Airport Blvd & Brickway Blvd,38.51119173,-122.7935235,"58035","","","0","","America/Los_Angeles","0"
"7714000","7714000",Airport Blvd & Brickway Blvd,38.51096978,-122.7932966,"58035","","","0","","America/Los_Angeles","0"
"7713310","7713310",Airport Blvd & N Laughlin Rd,38.51091307,-122.801606,"58035","","","0","","America/Los_Angeles","0"
"7713200","7713200",Airport Blvd & N Laughlin Rd,38.51113418,-122.8006591,"58035","","","0","","America/Los_Angeles","0"
"7713210","7713210",Airport Blvd & Ordinance Rd,38.51108419,-122.8028587,"58035","","","0","","America/Los_Angeles","0"
"7714100","7714100",Airport Blvd & SMART Station,38.5110767269,-122.7846982931,"58035","","","0","","America/Los_Angeles","0"
"7794500","7794500",Alliance Medical Center,38.6267718659,-122.865088661,"58035","","","0","","America/Los_Angeles","0"
"7764700","7764700",Amarosa Academy,38.39713582,-122.7234076,"58034","","","0","","America/Los_Angeles","0"
"7790000","7790000",Arata Ln & Brooks Rd Embree Ln,38.5621307025,-122.8043053991,"58035","","","0","","America/Los_Angeles","0"
"7791100","7791100",Arata Ln & Old Redwood Hwy,38.561875076,-122.8211461029,"58035","","","0","","America/Los_Angeles","0"
"7789900","7789900",Arata Ln & Troon Ct,38.5621736935,-122.8021696414,"58035","","","0","","America/Los_Angeles","0"
"7797800","7797800",Arch View (Blind Beach),38.4406911136,-123.1264984029,"58040","","","0","","America/Los_Angeles","0"
"7751400","7751400",Arlen/Santa Alicia,38.33998342,-122.7098338,"58033","","","0","","America/Los_Angeles","0"
"7733600","7733600",Arnold Dr,38.3553199,-122.5251394,"58038","","","0","","America/Los_Angeles","0"
"7727200","7727200",Arnold Dr,38.35416289,-122.5244585,"58038","","","0","","America/Los_Angeles","0"
"7733800","7733800",Arnold Dr & Carquinez Ave,38.36383294,-122.5243097,"58038","","","0","","America/Los_Angeles","0"
"7727600","7727600",Arnold Dr & Madrone Rd,38.33870859,-122.5129367,"58038","","","0","","America/Los_Angeles","0"
"7733200","7733200",Arnold Dr & Madrone Rd,38.33942029,-122.5129368,"58038","","","0","","America/Los_Angeles","0"
"7733300","7733300",Arnold Dr & Sonoma Glen Circle,38.3420101,-122.5135722,"58038","","","0","","America/Los_Angeles","0"
"7727500","7727500",Arnold Dr & Sonoma Glen Circle,38.34198954,-122.5137598,"58038","","","0","","America/Los_Angeles","0"
"7733400","7733400",Arnold Dr & Traxler,38.3464424,-122.5143138,"58038","","","0","","America/Los_Angeles","0"
"7727400","7727400",Arnold Dr & Traxler Dr,38.34632999,-122.514483,"58038","","","0","","America/Los_Angeles","0"
"7727000","7727000",Arnold Dr & Warm Springs Rd,38.3638298,-122.5244788,"58038","","","0","","America/Los_Angeles","0"
"7706700","7706700",Asti,38.76157999,-122.9754915,"58037","","","0","","America/Los_Angeles","0"
"7708200","7708200",Asti,38.76139674,-122.9756806,"58037","","","0","","America/Los_Angeles","0"
"7707310","7707310",Asti Rd & Cloverdale Depot,38.79806417,-123.011823,"58037","","","0","","America/Los_Angeles","0"
"7708110","7708110",Asti Rd & Theresa Dr,38.76610079,-122.9919318,"58037","","","0","","America/Los_Angeles","0"
"7706710","7706710",Asti Rd & Theresa Dr,38.76610151,-122.9913956,"58037","","","0","","America/Los_Angeles","0"
"7708300","7708300",Asti Rd & Washington School Rd,38.75611211,-122.9712242,"58037","","","0","","America/Los_Angeles","0"
"7706600","7706600",Asti Rd & Washington School Rd,38.75638889,-122.9712799,"58037","","","0","","America/Los_Angeles","0"
"7714110","7714110",Aviation Blvd & Airport Blvd,38.5133057377,-122.7828538018,"58035","","","0","","America/Los_Angeles","0"
"7714130","7714130",Aviation Blvd & Brickway Blvd,38.5159725109,-122.7923439386,"58035","","","0","","America/Los_Angeles","0"
"7714120","7714120",Aviation Blvd & Concourse Blvd,38.5149072812,-122.7879766509,"58035","","","0","","America/Los_Angeles","0"
"7731700","7731700",Bay St/Verano Ave (ac El Verano PO),38.30051707,-122.4872693,"58039","","","0","","America/Los_Angeles","0"
"7718020","7718020",Beach/ Orchard,38.4848257622,-123.0107734621,"58040","","","0","","America/Los_Angeles","0"
"7765410","7765410",Bellevue Ave & Moorland Ave,38.4019364705,-122.7180281281,"58034","","","0","","America/Los_Angeles","0"
"7788500","7788500",Bell Rd & Conde Ln,38.5369476866,-122.8014473808,"58035","","","0","","America/Los_Angeles","0"
"7797200","7797200",Blair St & Clark Ave,38.7979634556,-123.0146394256,"58037","","","0","","America/Los_Angeles","0"
"7720730","7720730",Bodega Ave & N Main St,38.402084,-122.824493,"58036","","","0","","America/Los_Angeles","0"
"7720830","7720830",Bodega Ave & Pleasant Hill Ave,38.39827084,-122.8389857,"58036","","","0","","America/Los_Angeles","0"
"7720820","7720820",Bodega Ave & Virginia Ave,38.39821811,-122.8344564,"58036","","","0","","America/Los_Angeles","0"
"7798300","7798300",Bodega Bay Post Office (Eastbound),38.3242009539,-123.0390595266,"58040","","","0","","America/Los_Angeles","0"
"7799100","7799100",Bodega Bay Post Office (Westbound),38.3242272485,-123.0389920189,"58040","","","0","","America/Los_Angeles","0"
"7798500","7798500",Bodega (Eastbound),38.3456810231,-122.9736877254,"58040","","","0","","America/Los_Angeles","0"
"7798800","7798800",Bodega Hwy & Grandview,38.3929096727,-122.8772593361,"58036","","","0","","America/Los_Angeles","0"
"7798700","7798700",Bodega Hwy & Sexton Rd,38.3914389175,-122.8795691109,"58036","","","0","","America/Los_Angeles","0"
"7799000","7799000",Bodega (Westbound),38.3457563177,-122.9737519628,"58040","","","0","","America/Los_Angeles","0"
"7762780","7762780",Bodway & Maurice,38.33433504,-122.6777819,"58033","","","0","","America/Los_Angeles","0"
"7762770","7762770",Bodway Pkwy/ Middlebrook Way,38.33205724,-122.6762095,"58033","","","0","","America/Los_Angeles","0"
"7731750","7731750",Boyes Blvd & Poplar,38.31418351,-122.4842927,"58039","","","0","","America/Los_Angeles","0"
"7731730","7731730",Boyes Blvd & Railroad Ave,38.31173252,-122.4921335,"58039","","","0","","America/Los_Angeles","0"
"7731740","7731740",Boyes Blvd & Riverside Dr,38.31314734,-122.4881561,"58039","","","0","","America/Los_Angeles","0"
"7782300","7782300",Boyes Blvd & Riverside Dr,38.31326561,-122.4882235,"58039","","","0","","America/Los_Angeles","0"
"7782200","7782200",Boyes Blvd & Spring St,38.31404129,-122.4852375,"58039","","","0","","America/Los_Angeles","0"
"7728300","7728300",Boyes Hot Springs,38.3143495629,-122.4818582958,"58039","","","0","","America/Los_Angeles","0"
"7732400","7732400",Boyes Hot Springs (Sonoma Mission Inn),38.3145854,-122.4817477,"58039","","","0","","America/Los_Angeles","0"
"7794200","7794200",Bridle Path & Spur Ridge Lane,38.6412249613,-122.8675118993,"58035","","","0","","America/Los_Angeles","0"
"7730720","7730720",Broadway & Leveroni Rd,38.2761560315,-122.4604472375,"58039","","","0","","America/Los_Angeles","0"
"7786720","7786720",Broadway & Leveroni Rd,38.27715705,-122.4599655,"58039","","","0","","America/Los_Angeles","0"
"7730600","7730600",Broadway & Maple St,38.28982359,-122.4583664,"58039","","","0","","America/Los_Angeles","0"
"7730400","7730400",Broadway & Patten St,38.28984489,-122.4580508,"58039","","","0","","America/Los_Angeles","0"
"7730710","7730710",Broadway & W MacArthur,38.2840079703,-122.4592338727,"58039","","","0","","America/Los_Angeles","0"
"7797000","7797000",Brookside Dr & Cloverdale Blvd,38.7917312269,-123.0171622834,"58037","","","0","","America/Los_Angeles","0"
"7796800","7796800",Brookside Dr & Foothill Blvd,38.7913801264,-123.0197186318,"58037","","","0","","America/Los_Angeles","0"
"7790200","7790200",Brooks Rd & Foothill Dr,38.5566839536,-122.80753241,"58035","","","0","","America/Los_Angeles","0"
"7790300","7790300",Brooks Rd & Glen Miller Dr (Lakewood Village),38.5511211631,-122.8075336683,"58035","","","0","","America/Los_Angeles","0"
"7790100","7790100",Brooks Rd & Jessica Dr,38.5600178426,-122.8075419474,"58035","","","0","","America/Los_Angeles","0"
"7700200","7700200",B St & Ross St,38.4413367874,-122.7167993978,"58034","","","0","","America/Los_Angeles","0"
"7716600","7716600",B St & Seventh St,38.44089571,-122.7167027,"58034","","","0","","America/Los_Angeles","0"
"7720812","7720812",Burbank Heights,38.396469942,-122.8331202416,"58036","","","0","","America/Los_Angeles","0"
"7720800","7720800",Burbank Heights,38.39733204,-122.8335403,"58036","","","0","","America/Los_Angeles","0"
"7720811","7720811",Burbank Heights,38.39536852,-122.8339722,"58036","","","0","","America/Los_Angeles","0"
"7720810","7720810",Burbank Heights - Experimental Farm,38.3966448633,-122.8347151963,"58033","","","0","","America/Los_Angeles","0"
"7771040","7771040",Burton Ave & Adrian Dr,38.33166488,-122.6978651,"58033","","","0","","America/Los_Angeles","0"
"7770710","7770710",Burton Ave & Adrin Dr,38.3314061191,-122.6978123188,"58033","","","0","","America/Los_Angeles","0"
"7770730","7770730",Burton Ave & Bernice Ave,38.3369857726,-122.6981180906,"58033","","","0","","America/Los_Angeles","0"
"7771020","7771020",Burton Ave & Bernice Ave,38.33711694,-122.6984231,"58033","","","0","","America/Los_Angeles","0"
"7771030","7771030",Burton Ave & Bonnie Ave,38.33426044,-122.6967434,"58033","","","0","","America/Los_Angeles","0"
"7770720","7770720",Burton Ave & Bonnie Ave,38.3340234761,-122.6964658499,"58033","","","0","","America/Los_Angeles","0"
"7742820","7742820",Business Park Dr & Redwood Dr,38.35778802,-122.7153751,"58033","","","0","","America/Los_Angeles","0"
"7772030","7772030",Business Park Dr & Redwood Dr,38.35760723,-122.7143603,"58033","","","0","","America/Los_Angeles","0"
"7788400","7788400",Cameron Dr & Bell Rd,38.5340263406,-122.8030558458,"58035","","","0","","America/Los_Angeles","0"
"7762710","7762710",Camino Colegio & East Cotati Ave,38.33374242,-122.687626,"58033","","","0","","America/Los_Angeles","0"
"7762720","7762720",Camino Colegio & Magnolia,38.32851942,-122.6866302,"58033","","","0","","America/Los_Angeles","0"
"7762930","7762930",Camino Colegio & Magnolia Ave,38.328382753,-122.6862272527,"58033","","","0","","America/Los_Angeles","0"
"7762920","7762920",Camino Colegio & Manchester (Ac Credo HS),38.325460661,-122.6794299504,"58033","","","0","","America/Los_Angeles","0"
"7762750","7762750",Camino Colegio & Manchester (Credo HS),38.3252424964,-122.679258289,"58033","","","0","","America/Los_Angeles","0"
"7762730","7762730",Camino Colegio & Maple,38.32624353,-122.6852626,"58033","","","0","","America/Los_Angeles","0"
"7762910","7762910",Camino Colegio & Middlebrook Way,38.3324658625,-122.6767438772,"58033","","","0","","America/Los_Angeles","0"
"7762740","7762740",Camino Colegio & Mitchell,38.32519458,-122.6811075,"58033","","","0","","America/Los_Angeles","0"
"7769800","7769800",Camp Meeker (Bohemian Hwy & Market),38.425193014,-122.9592916901,"58040","","","0","","America/Los_Angeles","0"
"7717100","7717100",Camp Meeker (Bohemian Hwy & Van Ness Ave),38.42422487,-122.9566357,"58040","","","0","","America/Los_Angeles","0"
"7792600","7792600",Catholic Church (Matheson St),38.6107329593,-122.8680191869,"58035","","","0","","America/Los_Angeles","0"
"7795500","7795500",Champlain Ave & Cloverdale Blvd,38.8123488648,-123.0225859372,"58037","","","0","","America/Los_Angeles","0"
"7772600","7772600",Chase Bank,38.34833123,-122.7075542,"58033","","","0","","America/Los_Angeles","0"
"7796200","7796200",Cherry Creek Rd & Cloverdale Blvd,38.7948814126,-123.0186959555,"58037","","","0","","America/Los_Angeles","0"
"7796300","7796300",Cherry Creek Rd & Foothill Blvd,38.7947326773,-123.0207055739,"58037","","","0","","America/Los_Angeles","0"
"7707100","7707100",Cloverdale Blvd & Brookside Dr,38.79200937,-123.0174969,"58037","","","0","","America/Los_Angeles","0"
"7707700","7707700",Cloverdale Blvd & Brookside Dr,38.79103546,-123.0175593,"58037","","","0","","America/Los_Angeles","0"
"7707000","7707000",Cloverdale Blvd & Church Ln,38.78609006,-123.0141114,"58037","","","0","","America/Los_Angeles","0"
"7795200","7795200",Cloverdale Blvd & Fourth St,38.8081623403,-123.0189965272,"58037","","","0","","America/Los_Angeles","0"
"7707600","7707600",Cloverdale Blvd & Franklin St,38.79820655,-123.0184563,"58037","","","0","","America/Los_Angeles","0"
"7707500","7707500",Cloverdale Blvd & Healdsburg Ave,38.800529,-123.01667,"58037","","","0","","America/Los_Angeles","0"
"7707320","7707320",Cloverdale Blvd & Railroad Ave,38.8031534056,-123.0158309785,"58037","","","0","","America/Los_Angeles","0"
"7706900","7706900",Cloverdale Blvd & Sandholm Dr,38.78197143,-123.0099086,"58037","","","0","","America/Los_Angeles","0"
"7707900","7707900",Cloverdale Blvd & Sandholm Dr,38.78107398,-123.0090673,"58037","","","0","","America/Los_Angeles","0"
"7795400","7795400",Cloverdale Blvd & School St,38.8107048396,-123.0208940494,"58037","","","0","","America/Los_Angeles","0"
"7707300","7707300",Cloverdale Blvd & South St,38.80027783,-123.0164808,"58037","","","0","","America/Los_Angeles","0"
"7707200","7707200",Cloverdale Blvd & Tarman Dr,38.79816744,-123.0181411,"58037","","","0","","America/Los_Angeles","0"
"7707800","7707800",Cloverdale Blvd & Treadway,38.7843695,-123.0129716,"58037","","","0","","America/Los_Angeles","0"
"7796500","7796500",Cloverdale Blvd & Treadway Blvd (CVS Store),38.7849546111,-123.0139883009,"58037","","","0","","America/Los_Angeles","0"
"7796600","7796600","Cloverdale Blvd & Treadway Blvd (Ray's Market)",38.7838978129,-123.014694718,"58037","","","0","","America/Los_Angeles","0"
"7707400","7707400",Cloverdale City Hall & Plaza,38.805965,-123.017418,"58037","","","0","","America/Los_Angeles","0"
"7715700","7715700",Coddingtown,38.45713299,-122.7324378,"58034","","","0","","America/Los_Angeles","0"
"7743810","7743810",Commerce Blvd & Alison,38.33892972,-122.7123664,"58033","","","0","","America/Los_Angeles","0"
"7751500","7751500",Commerce Blvd & Arlen Dr,38.34077442,-122.7122323,"58033","","","0","","America/Los_Angeles","0"
"7743800","7743800",Commerce Blvd & Arlen Dr,38.34087434,-122.7123831,"58033","","","0","","America/Los_Angeles","0"
"7743700","7743700",Commerce Blvd & Enterprise Dr,38.34450109,-122.7122174,"58033","","","0","","America/Los_Angeles","0"
"7751600","7751600",Commerce Blvd & Enterprise Dr,38.34511017,-122.7115498,"58033","","","0","","America/Los_Angeles","0"
"7743500","7743500",Commerce Blvd & Padre Parkway,38.35011198,-122.7097556,"58033","","","0","","America/Los_Angeles","0"
"7751810","7751810",Commerce Blvd & Professional Center Dr,38.35388992,-122.7123491,"58033","","","0","","America/Los_Angeles","0"
"7743400","7743400",Commerce Blvd & Professional Center Dr,38.35390495,-122.7125357,"58033","","","0","","America/Los_Angeles","0"
"7751800","7751800",Commerce Blvd & RP Expressway,38.34991393,-122.7094897,"58033","","","0","","America/Los_Angeles","0"
"7743600","7743600",Commerce Blvd & RP Expressway,38.34730697,-122.7097547,"58033","","","0","","America/Los_Angeles","0"
"7751700","7751700",Commerce Blvd & RP Expressway,38.34761562,-122.7094376,"58033","","","0","","America/Los_Angeles","0"
"7751900","7751900",Commerce Blvd & State Farm Dr,38.3571826962,-122.7124785034,"58033","","","0","","America/Los_Angeles","0"
"7743300","7743300",Commerce Blvd & State Farm Dr,38.35809394,-122.7126844,"58033","","","0","","America/Los_Angeles","0"
"7752100","7752100",Commerce Blvd & Utility Ct,38.360581723,-122.7123682608,"58033","","","0","","America/Los_Angeles","0"
"7743200","7743200",Commerce Blvd & Utility Ct,38.36092791,-122.7125522,"58033","","","0","","America/Los_Angeles","0"
"7762300","7762300",Commerce Blvd & Wilford Ln,38.33578352,-122.712376,"58033","","","0","","America/Los_Angeles","0"
"7750840","7750840",Commerce Blvd & Wilford Ln,38.33500387,-122.7123589,"58033","","","0","","America/Los_Angeles","0"
"7788700","7788700",Conde Ln,38.5362236507,-122.8001727649,"58035","","","0","","America/Los_Angeles","0"
"7788900","7788900",Conde Ln & American Way,38.5296553488,-122.798234808,"58035","","","0","","America/Los_Angeles","0"
"7788800","7788800",Conde Ln & Den Beste Ct,38.5342667698,-122.7983706072,"58035","","","0","","America/Los_Angeles","0"
"7788600","7788600",Conde Ln (Windsor MHP),38.5395250748,-122.8039342314,"58035","","","0","","America/Los_Angeles","0"
"7713120","7713120",Copperhill Parkway & N Laughlin Rd,38.50752046,-122.7979583,"58035","","","0","","America/Los_Angeles","0"
"7713800","7713800",Copperhill Pkwy & N Laughlin Rd,38.50722201,-122.7978727,"58035","","","0","","America/Los_Angeles","0"
"7766000","7766000",Corby Ave & Bellevue Ave,38.40737935,-122.7164909,"58034","","","0","","America/Los_Angeles","0"
"7765500","7765500",Corby Ave & Bellevue Ave,38.40764857,-122.7163375,"58034","","","0","","America/Los_Angeles","0"
"7765900","7765900",Corby Ave & Hearn Ave,38.41129472,-122.7164838,"58034","","","0","","America/Los_Angeles","0"
"7765600","7765600",Corby Ave & Hearn Ave,38.41039025,-122.7163348,"58034","","","0","","America/Los_Angeles","0"
"7765800","7765800",Corby Extension,38.41450249,-122.7180034,"58034","","","0","","America/Los_Angeles","0"
"7765700","7765700",Corby Extension,38.41348062,-122.7193553,"58034","","","0","","America/Los_Angeles","0"
"7744800","7744800",Cotati Hub,38.32619993,-122.7061734,"58033","","","0","","America/Los_Angeles","0"
"7750800","7750800",Cotati Hub,38.3266211,-122.7054706,"58033","","","0","","America/Los_Angeles","0"
"7771500","7771500",Country Club Dr & Civic Center Dr,38.34663134,-122.6963733,"58033","","","0","","America/Los_Angeles","0"
"7771400","7771400",Country Club Dr & Copeland Creek,38.34303679,-122.6949625,"58033","","","0","","America/Los_Angeles","0"
"7773300","7773300",Country Club Dr & Ellen St,38.35565236,-122.6937922,"58033","","","0","","America/Los_Angeles","0"
"7773200","7773200",Country Club Dr & Emily,38.35179837,-122.695478,"58033","","","0","","America/Los_Angeles","0"
"7742010","7742010",Country Club Dr & Golf Course Dr,38.3615519417,-122.6944020428,"58033","","","0","","America/Los_Angeles","0"
"7773710","7773710",Country Club Dr & Hudis,38.36464409,-122.6961639,"58033","","","0","","America/Los_Angeles","0"
"7773100","7773100",Country Club Dr & Santa Cruz Way,38.34964807,-122.6954733,"58033","","","0","","America/Los_Angeles","0"
"7773400","7773400",Country Club/ Golf Course,38.36185722,-122.6943612,"58033","","","0","","America/Los_Angeles","0"
"7715770","7715770",County Admin Center (Ventura Ave),38.466534,-122.724426,"58034","","","0","","America/Los_Angeles","0"
"7701030","7701030",County Admin Center (Ventura Ave),38.46654093,-122.7242188,"58034","","","0","","America/Los_Angeles","0"
"7720850","7720850",Covert Ln & Pleasant Hill,38.40539476,-122.8408128,"58036","","","0","","America/Los_Angeles","0"
"7794900","7794900",CVS (Piper St),38.614228404,-122.8708413011,"58035","","","0","","America/Los_Angeles","0"
"7784400","7784400",DeAnza/Moon Valley MHP,38.2831801308,-122.4696490951,"58039","","","0","","America/Los_Angeles","0"
"7786800","7786800","DeAnza/Moon Valley MHP (5th St W & Emily's Meadow Ct)",38.28321081,-122.4694655,"58039","","","0","","America/Los_Angeles","0"
"7798400","7798400",Doran Park (Bodega Bay),38.3062906949,-123.0536697248,"58040","","","0","","America/Los_Angeles","0"
"7705310","7705310",Dry Creek Rd & Healdsburg Ave,38.62636291,-122.8737646,"58035","","","0","","America/Los_Angeles","0"
"7717400","7717400",D St & Bohemian Hwy,38.4677389665,-123.0106600877,"58040","","","0","","America/Los_Angeles","0"
"7797900","7797900","Duncan's Landing",38.4011955462,-123.0944557969,"58040","","","0","","America/Los_Angeles","0"
"7717340","7717340",Duncans Mills,38.453416066,-123.0536903381,"58040","","","0","","America/Los_Angeles","0"
"7799200","7799200",Duncans Mills (Eastbound),38.4531464373,-123.053945326,"58040","","","0","","America/Los_Angeles","0"
"7797600","7797600",Duncans Mills (Westbound),38.4531187971,-123.0542292445,"58040","","","0","","America/Los_Angeles","0"
"7708000","7708000",Dutcher Creek Rd & Hiatt Rd,38.77494848,-123.0022061,"58037","","","0","","America/Los_Angeles","0"
"7721030","7721030",Earl Baum Ctr (Occidental Rd),38.42373072,-122.7803922,"58036","","","0","","America/Los_Angeles","0"
"7744600","7744600",East Cotati Ave & Adrian Dr,38.32972436,-122.6971798,"58033","","","0","","America/Los_Angeles","0"
"7763000","7763000",East Cotati Ave & Bodway/Vine,38.33599657,-122.6773239,"58033","","","0","","America/Los_Angeles","0"
"7762800","7762800",East Cotati Ave & Camino Colegio Ave,38.33495475,-122.6868396,"58033","","","0","","America/Los_Angeles","0"
"7758200","7758200",East Cotati Ave & Camino Colegio Ave,38.33392131,-122.6887091,"58033","","","0","","America/Los_Angeles","0"
"7758100","7758100",East Cotati Ave & Cristobal Way,38.3351866,-122.6868726,"58033","","","0","","America/Los_Angeles","0"
"7758500","7758500",East Cotati Ave & Lancaster Dr,38.33040071,-122.6954836,"58033","","","0","","America/Los_Angeles","0"
"7750900","7750900",East Cotati Ave & La Salle Ave,38.32862395,-122.6991816,"58033","","","0","","America/Los_Angeles","0"
"7744700","7744700",East Cotati Ave & La Salle St,38.32873313,-122.6994569,"58033","","","0","","America/Los_Angeles","0"
"7756500","7756500",East Cotati Ave & Petaluma Hill Rd,38.3362539,-122.6687535,"58033","","","0","","America/Los_Angeles","0"
"7758400","7758400",East Cotati Ave & Ryan Lane,38.3314364214,-122.6929338452,"58033","","","0","","America/Los_Angeles","0"
"7762610","7762610",East Cotati Ave & Santero Way,38.331753067,-122.6917450277,"58033","","","0","","America/Los_Angeles","0"
"7756700","7756700",East Cotati Ave & Sequoia Way,38.33624372,-122.6754723,"58033","","","0","","America/Los_Angeles","0"
"7762900","7762900",East Cotati Ave & Snyder/Maurice,38.33599767,-122.6839518,"58033","","","0","","America/Los_Angeles","0"
"7756800","7756800",East Cotati Ave & Snyder/Roman,38.336248,-122.6822277,"58033","","","0","","America/Los_Angeles","0"
"7758300","7758300",East Cotati Ave & Sunflower Dr,38.33267251,-122.6904413,"58033","","","0","","America/Los_Angeles","0"
"7762700","7762700",East Cotati Ave & Windmill Farms Dr,38.33246852,-122.6903189,"58033","","","0","","America/Los_Angeles","0"
"7730300","7730300",E Broadway & MacArthur (Ac Sonoma Vly HS),38.28495944,-122.4587454,"58039","","","0","","America/Los_Angeles","0"
"7762600","7762600",E Cotati/Lancaster,38.33073356,-122.6941078,"58033","","","0","","America/Los_Angeles","0"
"7729200","7729200",El Verano (Verano Ave & Bay St),38.30155671,-122.4876839,"58039","","","0","","America/Los_Angeles","0"
"7771800","7771800",Enterprise Dr & Hunter Dr,38.34471544,-122.70642,"58033","","","0","","America/Los_Angeles","0"
"7748600","7748600",E Washington St & Ellis St,38.24353483,-122.6312198,"58033","","","0","","America/Los_Angeles","0"
"7754300","7754300",E Washington St & Kenilworth Dr,38.2439417889,-122.6305505633,"58033","","","0","","America/Los_Angeles","0"
"7754200","7754200",E Washington St & Lakeville St,38.23826169,-122.6356492,"58033","","","0","","America/Los_Angeles","0"
"7748700","7748700",E Washington St & Vallejo,38.24072318,-122.6338275,"58033","","","0","","America/Los_Angeles","0"
"7754210","7754210",E Washington St & Vallejo St,38.24069902,-122.6335687,"58033","","","0","","America/Los_Angeles","0"
"7764100","7764100",Fairfield Inn,38.38860193,-122.8145178,"58036","","","0","","America/Los_Angeles","0"
"7760210","7760210",Fairfield Inn - Main Entrance,38.3888288377,-122.8145934324,"58033","","","0","","America/Los_Angeles","0"
"7773740","7773740",Fairway/ Country Club,38.36626523,-122.697851,"58033","","","0","","America/Los_Angeles","0"
"7773750","7773750",Fairway Dr & Holly Ave,38.37160252,-122.6962735,"58033","","","0","","America/Los_Angeles","0"
"7773730","7773730",Fairway & Flores,38.36543687,-122.7047319,"58033","","","0","","America/Los_Angeles","0"
"7732200","7732200",Fiesta Plaza,38.30843555,-122.4784708,"58039","","","0","","America/Los_Angeles","0"
"7730000","7730000",Fifth St West & Andrieux St,38.28945934,-122.4687259,"58039","","","0","","America/Los_Angeles","0"
"7764210","7764210",Fircrest MHP Clubhouse,38.3915415114,-122.8130926639,"58036","","","0","","America/Los_Angeles","0"
"7793300","7793300",First St & Mason St,38.6080522555,-122.8618555426,"58035","","","0","","America/Los_Angeles","0"
"7792800","7792800",Fitch Mountain Terrace,38.6103300303,-122.8565591492,"58035","","","0","","America/Los_Angeles","0"
"7794800","7794800",Fitch St & Grant St,38.6164215111,-122.8673203704,"58035","","","0","","America/Los_Angeles","0"
"7796310","7796310",Foothill Blvd & Del Web Dr,38.7909366426,-123.02025213,"58037","","","0","","America/Los_Angeles","0"
"7796700","7796700",Foothill Blvd & Elbridge Ave,38.7847431989,-123.0204336492,"58037","","","0","","America/Los_Angeles","0"
"7796400","7796400",Foothill Dr & Elbridge Ave,38.7844244464,-123.0202895178,"58037","","","0","","America/Los_Angeles","0"
"7789800","7789800",Foothill Regional Park,38.5602856422,-122.7979606157,"58035","","","0","","America/Los_Angeles","0"
"7719400","7719400",Forestville (Downtown),38.4735395,-122.8928919,"58036","","","0","","America/Los_Angeles","0"
"7767500","7767500",Forestville (Downtown),38.47367409,-122.8929302,"58036","","","0","","America/Los_Angeles","0"
"7790700","7790700",Foxwood Dr,38.552464637,-122.8112792034,"58035","","","0","","America/Los_Angeles","0"
"7786300","7786300",Frates Rd & Lakeville Circle,38.2378757,-122.590596,"58033","","","0","","America/Los_Angeles","0"
"7785000","7785000",Frates Rd & Lakeville Circle,38.23782193,-122.5909259,"58033","","","0","","America/Los_Angeles","0"
"7798600","7798600",Freestone (Eastbound),38.3729335413,-122.9106488213,"58040","","","0","","America/Los_Angeles","0"
"7798900","7798900",Freestone (Westbound),38.372903362,-122.9109189562,"58040","","","0","","America/Los_Angeles","0"
"7701850","7701850",Fulton Rd & Airport Blvd,38.51028214,-122.7697278,"58035","","","0","","America/Los_Angeles","0"
"7714410","7714410",Fulton Rd & Airport Blvd,38.51068055,-122.7700679,"58035","","","0","","America/Los_Angeles","0"
"7701840","7701840",Fulton Rd & River Rd,38.49697808,-122.7699069,"58034","","","0","","America/Los_Angeles","0"
"7714420","7714420",Fulton Rd & River Rd,38.4976679,-122.7701479,"58034","","","0","","America/Los_Angeles","0"
"7709000","7709000",Geyserville Ave &,38.69305168,-122.8849537,"58037","","","0","","America/Los_Angeles","0"
"7708810","7708810",Geyserville Ave (Ac Geyserville Park & Ride),38.70718305,-122.9052674,"58037","","","0","","America/Los_Angeles","0"
"7708410","7708410",Geyserville Ave & Barilani Rd,38.7350163512,-122.9444641482,"58037","","","0","","America/Los_Angeles","0"
"7706410","7706410",Geyserville Ave & Barilani Rd,38.7349609831,-122.9442682681,"58037","","","0","","America/Los_Angeles","0"
"7708600","7708600",Geyserville Ave & Canyon Rd,38.71433341,-122.9173075,"58037","","","0","","America/Los_Angeles","0"
"7706300","7706300",Geyserville Ave & Canyon Rd,38.71451402,-122.9173464,"58037","","","0","","America/Los_Angeles","0"
"7708500","7708500",Geyserville Ave & East of Hwy 101,38.727993,-122.939468,"58037","","","0","","America/Los_Angeles","0"
"7708700","7708700",Geyserville Ave & Geysers Ridge Rd,38.71080318,-122.9120935,"58037","","","0","","America/Los_Angeles","0"
"7706200","7706200",Geyserville Ave & Geysers Ridge Rd,38.7106872,-122.9115988,"58037","","","0","","America/Los_Angeles","0"
"7706100","7706100",Geyserville Ave (Geyserville Park & Ride),38.70732429,-122.9052184,"58037","","","0","","America/Los_Angeles","0"
"7705810","7705810",Geyserville Ave & Independence Ln,38.67911269,-122.8797758,"58037","","","0","","America/Los_Angeles","0"
"7709010","7709010",Geyserville Ave & Independence Ln,38.67912815,-122.8798852,"58037","","","0","","America/Los_Angeles","0"
"7708800","7708800",Geyserville Ave & School House Ln,38.70820645,-122.9070055,"58037","","","0","","America/Los_Angeles","0"
"7705900","7705900",Geyserville Ave & Tzabaco Creek Rd,38.69346736,-122.8853573,"58037","","","0","","America/Los_Angeles","0"
"7706000","7706000",Geyserville Ave & Walden St,38.70547581,-122.9021122,"58037","","","0","","America/Los_Angeles","0"
"7708900","7708900",Geyserville Ave & Walden St,38.70532814,-122.9022357,"58037","","","0","","America/Los_Angeles","0"
"7708400","7708400",Geyserville Ave & Zanzi Ln,38.74198089,-122.9495214,"58037","","","0","","America/Los_Angeles","0"
"7706400","7706400",Geyserville Rd & East of Hwy 101,38.72806979,-122.9393669,"58037","","","0","","America/Los_Angeles","0"
"7706500","7706500",Geyserville Rd & Zanzi Ln,38.74208701,-122.9493358,"58037","","","0","","America/Los_Angeles","0"
"7727100","7727100",Glen Ellen (Arnold Dr & London Ranch Rd),38.36137742,-122.5258869,"58038","","","0","","America/Los_Angeles","0"
"7733700","7733700",Glen Ellen (Arnold Dr & London Ranch Rd),38.36217016,-122.5257982,"58038","","","0","","America/Los_Angeles","0"
"7773500","7773500",Golf Course Dr & Hacienda Way,38.362671,-122.693136,"58033","","","0","","America/Los_Angeles","0"
"7773600","7773600",Golf Course Dr & Halycon,38.365127,-122.691541,"58033","","","0","","America/Los_Angeles","0"
"7773700","7773700",Golf Course Dr & Hillview Ct,38.367018,-122.688735,"58033","","","0","","America/Los_Angeles","0"
"7739400","7739400",Graton,38.43751134,-122.8698057,"58036","","","0","","America/Los_Angeles","0"
"7720000","7720000",Graton,38.43732792,-122.8699724,"58036","","","0","","America/Los_Angeles","0"
"7720200","7720200",Graton Rd & Hwy 116,38.43684683,-122.858364,"58036","","","0","","America/Los_Angeles","0"
"7739200","7739200",Graton Rd & Hwy 116,38.43700841,-122.8588402,"58036","","","0","","America/Los_Angeles","0"
"7739300","7739300",Graton Rd & Sonoma Ave,38.43685602,-122.8622679,"58036","","","0","","America/Los_Angeles","0"
"7720100","7720100",Graton Rd & Sonoma Ave,38.43675309,-122.8615516,"58036","","","0","","America/Los_Angeles","0"
"7777700","7777700",Graton Resort (North Entrance),38.3616404691,-122.7226258096,"58033","","","0","","America/Los_Angeles","0"
"7720500","7720500",Gravenstein Hwy & Hurlbut Ave,38.40731686,-122.8385117,"58036","","","0","","America/Los_Angeles","0"
"7720400","7720400",Gravenstein Hwy & Mills Station Rd,38.41304545,-122.8433789,"58036","","","0","","America/Los_Angeles","0"
"7739110","7739110",Gravenstein Hwy & Mill Station Rd,38.41322168,-122.8432477,"58036","","","0","","America/Los_Angeles","0"
"7739120","7739120",Gravenstein Hwy & Occidental Rd,38.4258548195,-122.8481469074,"58036","","","0","","America/Los_Angeles","0"
"7720300","7720300",Gravenstein Hwy & Occidental Rd,38.42542342,-122.848404,"58036","","","0","","America/Los_Angeles","0"
"7739600","7739600",Green Valley Rd & Hicks Rd,38.44560393,-122.8677273,"58036","","","0","","America/Los_Angeles","0"
"7719800","7719800",Green Valley Rd & Hwy 116/Hicks Rd,38.44576348,-122.8673598,"58036","","","0","","America/Los_Angeles","0"
"7729300","7729300",Grove St & Bay St,38.29954296,-122.4864877,"58039","","","0","","America/Los_Angeles","0"
"7705320","7705320",Grove St & Chaquita Rd,38.63316713,-122.8766603,"58035","","","0","","America/Los_Angeles","0"
"7793800","7793800",Grove St & Dry Creek Rd,38.6258043766,-122.8756439228,"58035","","","0","","America/Los_Angeles","0"
"7793700","7793700",Grove Street & W Grant St,38.6163442313,-122.8755523129,"58035","","","0","","America/Los_Angeles","0"
"7769000","7769000",Guerneville (Bank of America),38.5020390053,-122.9998966422,"58040","","","0","","America/Los_Angeles","0"
"7715620","7715620",Guerneville Rd & SMART Station,38.4562037901,-122.7365146333,"58034","","","0","","America/Los_Angeles","0"
"7717900","7717900",Guerneville Safeway,38.50182822,-123.0005581,"58040","","","0","","America/Los_Angeles","0"
"7718010","7718010",Guernewood Rd & Neeley Rd,38.4988937847,-123.0021547329,"58040","","","0","","America/Los_Angeles","0"
"7727700","7727700",Hanna Boys Center,38.32080998,-122.5023471,"58039","","","0","","America/Los_Angeles","0"
"7733100","7733100",Hanna Boys Center,38.32076843,-122.5021438,"58039","","","0","","America/Los_Angeles","0"
"7709910","7709910",Harmon St & Healdsburg Depot,38.6074482965,-122.8662396744,"58035","","","0","","America/Los_Angeles","0"
"7705700","7705700",Healdsburg Ave & Alexander Valley Rd,38.65064361,-122.8692471,"58035","","","0","","America/Los_Angeles","0"
"7709200","7709200",Healdsburg Ave & Alexander Vly Rd,38.64983759,-122.8691078,"58035","","","0","","America/Los_Angeles","0"
"7709600","7709600",Healdsburg Ave & Dry Creek Rd,38.62504465,-122.8728117,"58035","","","0","","America/Los_Angeles","0"
"7705300","7705300",Healdsburg Ave & Dry Creek Rd,38.62354419,-122.8725411,"58035","","","0","","America/Los_Angeles","0"
"7704900","7704900",Healdsburg Ave & Exchange Way,38.60561888,-122.8687294,"58035","","","0","","America/Los_Angeles","0"
"7705500","7705500",Healdsburg Ave & Foss Creek (driveway),38.63323783,-122.8733428,"58035","","","0","","America/Los_Angeles","0"
"7709400","7709400",Healdsburg Ave & Grove St,38.63447572,-122.8742113,"58035","","","0","","America/Los_Angeles","0"
"7739100","7739100",Healdsburg Ave & Hurlbut Ave,38.40735362,-122.8382132,"58036","","","0","","America/Los_Angeles","0"
"7709100","7709100",Healdsburg Ave & Lytton Springs Rd,38.658852,-122.8717621,"58035","","","0","","America/Los_Angeles","0"
"7705800","7705800",Healdsburg Ave & Lytton Springs Rd,38.6582633078,-122.8714269989,"58035","","","0","","America/Los_Angeles","0"
"7709800","7709800",Healdsburg Ave & Matheson,38.60955874,-122.8703934,"58035","","","0","","America/Los_Angeles","0"
"7709900","7709900",Healdsburg Ave & Mill St,38.60736069,-122.8696934,"58035","","","0","","America/Los_Angeles","0"
"7705000","7705000",Healdsburg Ave & Mill St,38.60757937,-122.8694918,"58035","","","0","","America/Los_Angeles","0"
"7739000","7739000",Healdsburg Ave & Murphy Ave,38.40543351,-122.8332196,"58036","","","0","","America/Los_Angeles","0"
"7720600","7720600",Healdsburg Ave & Murphy Ave,38.40523618,-122.8325923,"58036","","","0","","America/Los_Angeles","0"
"7738900","7738900",Healdsburg Ave & N Main St,38.40536057,-122.8277428,"58036","","","0","","America/Los_Angeles","0"
"7720700","7720700",Healdsburg Ave & N Main St (Safeway),38.40517849,-122.8269352,"58036","","","0","","America/Los_Angeles","0"
"7709300","7709300",Healdsburg Ave & Parkland Farms Dr,38.63881782,-122.8739747,"58035","","","0","","America/Los_Angeles","0"
"7705600","7705600",Healdsburg Ave & Parkland Farms Dr,38.63837884,-122.873838,"58035","","","0","","America/Los_Angeles","0"
"7705200","7705200",Healdsburg Ave & Powell Ave,38.62110029,-122.8723508,"58035","","","0","","America/Los_Angeles","0"
"7709700","7709700",Healdsburg Ave & Sherman St,38.61864331,-122.8720327,"58035","","","0","","America/Los_Angeles","0"
"7709500","7709500",Healdsburg Ave & Sunnyvale Dr,38.62845329,-122.872767,"58035","","","0","","America/Los_Angeles","0"
"7716500","7716500",Healdsburg Ave & Tenth St,38.44366408,-122.717923,"58034","","","0","","America/Los_Angeles","0"
"7705400","7705400",Healdsburg Ave & Terrace,38.62766601,-122.8725195,"58035","","","0","","America/Los_Angeles","0"
"7705100","7705100",Healdsburg Plaza,38.61068829,-122.870491,"58035","","","0","","America/Los_Angeles","0"
"7789400","7789400",Hembree Ln & Bay Tree Ct,38.5487594785,-122.7979716932,"58035","","","0","","America/Los_Angeles","0"
"7712010","7712010",Hembree Ln & Broad Oak Way,38.53920919,-122.7981025,"58035","","","0","","America/Los_Angeles","0"
"7702560","7702560",Hembree Ln & Broad Oak Way,38.53898988,-122.7979351,"58035","","","0","","America/Los_Angeles","0"
"7702550","7702550",Hembree Ln & Cornell St,38.5361635,-122.7978742,"58035","","","0","","America/Los_Angeles","0"
"7712020","7712020",Hembree Ln & Dove Ln,38.536034,-122.798073,"58035","","","0","","America/Los_Angeles","0"
"7789200","7789200",Hembree Ln & (driveway),38.5438545261,-122.7981993686,"58035","","","0","","America/Los_Angeles","0"
"7789700","7789700",Hembree Ln & Foothill Dr,38.5581254014,-122.7979329179,"58035","","","0","","America/Los_Angeles","0"
"7789300","7789300",Hembree Ln & Leaf Haven Ln,38.5458569361,-122.797855764,"58035","","","0","","America/Los_Angeles","0"
"7789100","7789100",Hembree Ln & Old Redwood Hwy,38.5429659926,-122.7978690485,"58035","","","0","","America/Los_Angeles","0"
"7789500","7789500",Hembree Ln & Pepper Tree Dr,38.5512575708,-122.7979813212,"58035","","","0","","America/Los_Angeles","0"
"7789600","7789600",Hembree Ln & Vinecrest Rd,38.5552066301,-122.7979785328,"58035","","","0","","America/Los_Angeles","0"
"7702540","7702540",Hembree Ln & Wilson Ln,38.53313588,-122.7962341,"58035","","","0","","America/Los_Angeles","0"
"7784700","7784700",Hermosa Pkwy & Watmaugh Rd,38.26009485,-122.4866495,"58039","","","0","","America/Los_Angeles","0"
"7792900","7792900",Heron Dr & Hummingbird  Ct,38.610738647,-122.8546258283,"58035","","","0","","America/Los_Angeles","0"
"7773760","7773760",Holly Ave & Hawthorne Circle,38.37148141,-122.6936598,"58033","","","0","","America/Los_Angeles","0"
"7773770","7773770",Holly Ave & Hillview Way,38.37059772,-122.6903737,"58033","","","0","","America/Los_Angeles","0"
"7774010","7774010",Houser St & Redwood Dr,38.339079,-122.71389,"58033","","","0","","America/Los_Angeles","0"
"7770000","7770000",Hunter Dr & Senior Center,38.34551126,-122.7089704,"58033","","","0","","America/Los_Angeles","0"
"7763800","7763800",Hwy 116,38.37764377,-122.7957035,"58036","","","0","","America/Los_Angeles","0"
"7774200","7774200",Hwy 116 & Alder Ave,38.33243437,-122.7213076,"58033","","","0","","America/Los_Angeles","0"
"7761400","7761400",Hwy 116 & Alder Ave,38.3322,-122.720733,"58033","","","0","","America/Los_Angeles","0"
"7717410","7717410",Hwy 116 and Bohemian Hwy,38.4678683943,-123.0106544495,"58040","","","0","","America/Los_Angeles","0"
"7760110","7760110",Hwy 116 and Hutchins Ave,38.3932625783,-122.8184029607,"58036","","","0","","America/Los_Angeles","0"
"7739800","7739800",Hwy 116 & Appian Way,38.45858978,-122.8742225,"58036","","","0","","America/Los_Angeles","0"
"7719600","7719600",Hwy 116 & Appian Way,38.45793736,-122.8737267,"58036","","","0","","America/Los_Angeles","0"
"7760500","7760500",Hwy 116 & Bloomfield Rd,38.38100554,-122.805693,"58036","","","0","","America/Los_Angeles","0"
"7763900","7763900",Hwy 116 & Bloomfield Rd,38.38121974,-122.8057686,"58036","","","0","","America/Los_Angeles","0"
"7717360","7717360",Hwy 116 & Cazadero Hwy,38.46695085,-123.0509308,"58040","","","0","","America/Los_Angeles","0"
"7760600","7760600",Hwy 116 & Cooper Rd,38.37920468,-122.7989856,"58036","","","0","","America/Los_Angeles","0"
"7763300","7763300",Hwy 116 & Daywalt Rd (N xing 116),38.35912251,-122.7713102,"58036","","","0","","America/Los_Angeles","0"
"7761100","7761100",Hwy 116 & Daywalt Rd (N xing 116),38.35895541,-122.7714949,"58036","","","0","","America/Los_Angeles","0"
"7719500","7719500",Hwy 116 & Fallen Apple Ln,38.46586206,-122.8819268,"58036","","","0","","America/Los_Angeles","0"
"7764200","7764200",Hwy 116 & Fircrest Ave,38.39100179,-122.8165687,"58036","","","0","","America/Los_Angeles","0"
"7760200","7760200",Hwy 116 & Fircrest Ave,38.3908633,-122.816698,"58036","","","0","","America/Los_Angeles","0"
"7760700","7760700",Hwy 116 & Fredricks Rd,38.37415647,-122.791295,"58036","","","0","","America/Los_Angeles","0"
"7717390","7717390",Hwy 116 & Front St,38.46967229,-123.014148,"58040","","","0","","America/Los_Angeles","0"
"7769100","7769100",Hwy 116 (Guerneville Park & Ride),38.50204813,-123.0030418,"58040","","","0","","America/Los_Angeles","0"
"7717800","7717800",Hwy 116 (Guerneville Park & Ride),38.50185113,-123.0027351,"58040","","","0","","America/Los_Angeles","0"
"7719700","7719700",Hwy 116 & Guerneville Rd,38.45137218,-122.8681371,"58036","","","0","","America/Los_Angeles","0"
"7739700","7739700",Hwy 116 & Guerneville Rd,38.45263229,-122.8683234,"58036","","","0","","America/Los_Angeles","0"
"7761210","7761210",Hwy 116 & Hessel & Blank Rd,38.34346924,-122.7574062,"58036","","","0","","America/Los_Angeles","0"
"7761000","7761000",Hwy 116 & Hessel Rd,38.36340461,-122.7794375,"58036","","","0","","America/Los_Angeles","0"
"7763400","7763400",Hwy 116 & Hessel Rd,38.36347877,-122.7793004,"58036","","","0","","America/Los_Angeles","0"
"7764300","7764300",Hwy 116 & Hutchins Ave,38.39302891,-122.818031,"58036","","","0","","America/Los_Angeles","0"
"7764000","7764000",Hwy 116 & Industrial Ave,38.38374465,-122.8107886,"58036","","","0","","America/Los_Angeles","0"
"7717370","7717370",Hwy 116 & Laurel Dell Ave,38.46668715,-123.0411087,"58040","","","0","","America/Los_Angeles","0"
"7763500","7763500",Hwy 116 & Lone Pine Rd,38.36500561,-122.7809461,"58036","","","0","","America/Los_Angeles","0"
"7760900","7760900",Hwy 116 & Lone Pine Rd,38.36484362,-122.7809687,"58036","","","0","","America/Los_Angeles","0"
"7769200","7769200",Hwy 116 & Lovers/Guernewood Ln,38.49532542,-123.0086669,"58040","","","0","","America/Los_Angeles","0"
"7760300","7760300",Hwy 116 & Lynch Rd,38.38858716,-122.8148809,"58036","","","0","","America/Los_Angeles","0"
"7717700","7717700",Hwy 116 & Old Cazadero Rd,38.49526664,-123.0083638,"58040","","","0","","America/Los_Angeles","0"
"7763700","7763700",Hwy 116 & Old Gravenstein Hwy,38.37562743,-122.7929182,"58036","","","0","","America/Los_Angeles","0"
"7768800","7768800",Hwy 116 & Old River Rd,38.50446796,-122.9927013,"58040","","","0","","America/Los_Angeles","0"
"7761500","7761500",Hwy 116 & Redwood Dr,38.33161793,-122.7164093,"58033","","","0","","America/Los_Angeles","0"
"7774100","7774100",Hwy 116 & Redwood Dr,38.33173584,-122.7155296,"58033","","","0","","America/Los_Angeles","0"
"7769400","7769400",Hwy 116 & Ridgecrest Dr,38.47780821,-122.9984552,"58040","","","0","","America/Los_Angeles","0"
"7717500","7717500",Hwy 116 & Ridgecrest Dr,38.47761809,-122.9983688,"58040","","","0","","America/Los_Angeles","0"
"7769300","7769300",Hwy 116 & Riverside Dr,38.49236103,-123.0152016,"58040","","","0","","America/Los_Angeles","0"
"7717600","7717600",Hwy 116 & Riverside Dr,38.49266947,-123.0145537,"58040","","","0","","America/Los_Angeles","0"
"7764310","7764310",Hwy 116 & Southpoint Ave,38.39447167,-122.8187896,"58036","","","0","","America/Los_Angeles","0"
"7760400","7760400",Hwy 116 & Sparkes Rd,38.38432003,-122.8121596,"58036","","","0","","America/Los_Angeles","0"
"7761300","7761300",Hwy 116 & Stony Point Rd,38.33436221,-122.7373297,"58033","","","0","","America/Los_Angeles","0"
"7763100","7763100",Hwy 116 & Stony Point Rd,38.3347597951,-122.7393544895,"58033","","","0","","America/Los_Angeles","0"
"7739900","7739900",Hwy 116 & Templeman Rd,38.46347716,-122.8792265,"58036","","","0","","America/Los_Angeles","0"
"7763600","7763600",Hwy 116 & Todd Rd,38.36997547,-122.7850067,"58036","","","0","","America/Los_Angeles","0"
"7760800","7760800",Hwy 116 & Todd Rd & Old Grvnstn Hwy,38.36787066,-122.7832729,"58036","","","0","","America/Los_Angeles","0"
"7717380","7717380",Hwy 116 & west of Duncan Rd,38.4773201,-123.0257457,"58040","","","0","","America/Los_Angeles","0"
"7761200","7761200",Hwy 116 & Woodworth Rd,38.34848627,-122.762207,"58036","","","0","","America/Los_Angeles","0"
"7763200","7763200",Hwy 116 & Woodworth Rd,38.34937647,-122.7627897,"58036","","","0","","America/Los_Angeles","0"
"7782900","7782900",Hwy 12 & 3rd St West,38.2924891,-122.4643189,"58039","","","0","","America/Los_Angeles","0"
"7781600","7781600",Hwy 12 & 3rd St West,38.29267605,-122.4649737,"58039","","","0","","America/Los_Angeles","0"
"7729800","7729800",Hwy 12 & 7th St West,38.29324336,-122.4723624,"58039","","","0","","America/Los_Angeles","0"
"7731300","7731300",Hwy 12 & 7th St West,38.29342576,-122.4724949,"58039","","","0","","America/Los_Angeles","0"
"7724400","7724400",Hwy 12 & Acacia Ln,38.46231943,-122.6687212,"58034","","","0","","America/Los_Angeles","0"
"7734310","7734310",Hwy 12 & Adobe Canyon Rd,38.42386501,-122.555625,"58038","","","0","","America/Los_Angeles","0"
"7726410","7726410",Hwy 12 & Adobe Canyon Rd,38.42407946,-122.5561406,"58038","","","0","","America/Los_Angeles","0"
"7732500","7732500",Hwy 12 & Balsam Ave,38.316833,-122.4835321,"58039","","","0","","America/Los_Angeles","0"
"7735900","7735900",Hwy 12 & Boas Dr,38.46518097,-122.6583649,"58034","","","0","","America/Los_Angeles","0"
"7724700","7724700",Hwy 12 & Boas Dr,38.46489233,-122.6572843,"58034","","","0","","America/Los_Angeles","0"
"7736200","7736200",Hwy 12 & Cardinal Way,38.46099626,-122.671099,"58034","","","0","","America/Los_Angeles","0"
"7732010","7732010",Hwy 12 & Donald St,38.30491479,-122.4773573,"58039","","","0","","America/Los_Angeles","0"
"7732100","7732100",Hwy 12 & Encinas,38.30613486,-122.4777293,"58039","","","0","","America/Los_Angeles","0"
"7728700","7728700",Hwy 12 & Encinas,38.30591416,-122.4778783,"58039","","","0","","America/Los_Angeles","0"
"7735600","7735600",Hwy 12 & Fairway Dr,38.45942202,-122.6371377,"58038","","","0","","America/Los_Angeles","0"
"7725100","7725100",Hwy 12 & Fairway Dr,38.45919086,-122.6373326,"58038","","","0","","America/Los_Angeles","0"
"7728400","7728400",Hwy 12 & Hawthorne Ave,38.31142427,-122.4803481,"58039","","","0","","America/Los_Angeles","0"
"7736000","7736000",Hwy 12 & Jack London Dr,38.46473019,-122.6615931,"58034","","","0","","America/Los_Angeles","0"
"7726700","7726700",Hwy 12 & Kunde Ranch Rd,38.41078732,-122.544071,"58038","","","0","","America/Los_Angeles","0"
"7726600","7726600",Hwy 12 & Laurel Ave,38.41519905,-122.5472205,"58038","","","0","","America/Los_Angeles","0"
"7734200","7734200",Hwy 12 & Laurel Ave,38.41568853,-122.5474559,"58038","","","0","","America/Los_Angeles","0"
"7726400","7726400",Hwy 12 & Lawndale Dr,38.42939125,-122.5640423,"58038","","","0","","America/Los_Angeles","0"
"7734400","7734400",Hwy 12 & Lawndale Rd,38.42990814,-122.5647455,"58038","","","0","","America/Los_Angeles","0"
"7734100","7734100",Hwy 12 & Libby Ave,38.41193128,-122.5444157,"58038","","","0","","America/Los_Angeles","0"
"7728200","7728200",Hwy 12 & Lichtenberg Ave,38.31690443,-122.483751,"58039","","","0","","America/Los_Angeles","0"
"7738500","7738500",Hwy 12 & Llano Rd,38.41233655,-122.7940713,"58036","","","0","","America/Los_Angeles","0"
"7721000","7721000",Hwy 12 & Llano Rd,38.41201252,-122.7941031,"58036","","","0","","America/Los_Angeles","0"
"7735500","7735500",Hwy 12 & Los Alamos,38.45839514,-122.6347013,"58038","","","0","","America/Los_Angeles","0"
"7725200","7725200",Hwy 12 & Los Alamos,38.45792645,-122.633575,"58038","","","0","","America/Los_Angeles","0"
"7726910","7726910",Hwy 12 & Madrone Rd,38.34334414,-122.4974969,"58038","","","0","","America/Los_Angeles","0"
"7732710","7732710",Hwy 12 & Madrone Rd,38.34458873,-122.4981799,"58038","","","0","","America/Los_Angeles","0"
"7724600","7724600",Hwy 12 & Maria Ln,38.46472612,-122.6604336,"58034","","","0","","America/Los_Angeles","0"
"7732700","7732700",Hwy 12 & Marin Ave,38.3242864,-122.4876958,"58039","","","0","","America/Los_Angeles","0"
"7728000","7728000",Hwy 12 & Marin Ave,38.32389548,-122.4877528,"58039","","","0","","America/Los_Angeles","0"
"7724900","7724900",Hwy 12 & Melita Rd,38.46463355,-122.6510306,"58034","","","0","","America/Los_Angeles","0"
"7725400","7725400",Hwy 12 & Melita Rd (East End),38.45351777,-122.6229557,"58038","","","0","","America/Los_Angeles","0"
"7735300","7735300",Hwy 12 & Melita Rd (East End),38.45375867,-122.6230268,"58038","","","0","","America/Los_Angeles","0"
"7735400","7735400",Hwy 12 & Melita Rd (West End),38.45615899,-122.628185,"58038","","","0","","America/Los_Angeles","0"
"7725300","7725300",Hwy 12 & Melita Rd (West End),38.45558113,-122.627412,"58038","","","0","","America/Los_Angeles","0"
"7721100","7721100",Hwy 12 & Merced Ave,38.42110356,-122.7785138,"58036","","","0","","America/Los_Angeles","0"
"7738400","7738400",Hwy 12 & Merced Rd,38.42114279,-122.7788678,"58036","","","0","","America/Los_Angeles","0"
"7724500","7724500",Hwy 12 & Middle Rincon Rd,38.46358896,-122.6654464,"58034","","","0","","America/Los_Angeles","0"
"7736100","7736100",Hwy 12 & Middle Rincon Rd,38.4640752,-122.6644193,"58034","","","0","","America/Los_Angeles","0"
"7720900","7720900",Hwy 12 & Morris St,38.4030601551,-122.8178395133,"58036","","","0","","America/Los_Angeles","0"
"7728100","7728100",Hwy 12 & Mountain Ave,38.31962053,-122.4859386,"58039","","","0","","America/Los_Angeles","0"
"7732600","7732600",Hwy 12 & Mountain Ave,38.31973723,-122.4857874,"58039","","","0","","America/Los_Angeles","0"
"7735700","7735700",Hwy 12 & Mountain Hawk,38.46269441,-122.6436854,"58038","","","0","","America/Los_Angeles","0"
"7725000","7725000",Hwy 12 & Mountain Hawk,38.46193293,-122.6425189,"58038","","","0","","America/Los_Angeles","0"
"7726800","7726800",Hwy 12 & Nuns Canyon Rd,38.38835615,-122.5224866,"58038","","","0","","America/Los_Angeles","0"
"7734000","7734000",Hwy 12 & Nuns Canyon Rd,38.38891191,-122.5231929,"58038","","","0","","America/Los_Angeles","0"
"7735210","7735210",Hwy 12 & Oakmont Dr,38.4457331,-122.6058789,"58038","","","0","","America/Los_Angeles","0"
"7725410","7725410",Hwy 12 & Oakmont Dr,38.44490605,-122.6046172,"58038","","","0","","America/Los_Angeles","0"
"7734410","7734410",Hwy 12 & Pythian Rd,38.43634794,-122.5800496,"58038","","","0","","America/Los_Angeles","0"
"7726320","7726320",Hwy 12 & Pythian Rd,38.43587432,-122.5794859,"58038","","","0","","America/Los_Angeles","0"
"7731420","7731420",Hwy 12 & Ramon St,38.2987839,-122.475068,"58039","","","0","","America/Los_Angeles","0"
"7729700","7729700",Hwy 12 & Riverside Dr,38.29347439,-122.4745729,"58039","","","0","","America/Los_Angeles","0"
"7728600","7728600",Hwy 12 & Siesta Way,38.30825843,-122.478682,"58039","","","0","","America/Los_Angeles","0"
"7733900","7733900",Hwy 12 & Sylvia Dr,38.38325604,-122.5166252,"58038","","","0","","America/Los_Angeles","0"
"7732300","7732300",Hwy 12 & Thompson Ave,38.31013188,-122.4794077,"58039","","","0","","America/Los_Angeles","0"
"7726900","7726900",Hwy 12 & Trinity Rd,38.37931743,-122.5144505,"58038","","","0","","America/Los_Angeles","0"
"7728800","7728800",Hwy 12 & Verano Ave,38.30319307,-122.4767272,"58039","","","0","","America/Los_Angeles","0"
"7732000","7732000",Hwy 12 & Verano Ave,38.30315661,-122.4763818,"58039","","","0","","America/Los_Angeles","0"
"7728820","7728820",Hwy 12 & West Spain St,38.29424992,-122.4759461,"58039","","","0","","America/Los_Angeles","0"
"7731410","7731410",Hwy 12 & West Spain St,38.29515861,-122.4755738,"58039","","","0","","America/Los_Angeles","0"
"7721010","7721010",Irwin Ln & Hwy 12,38.41793759,-122.7894844,"58036","","","0","","America/Los_Angeles","0"
"7776800","7776800",Irwin Ln & Hwy 12,38.41797344,-122.7895855,"58036","","","0","","America/Los_Angeles","0"
"7776700","7776700",Irwin Ln & Occidental Rd,38.42294861,-122.7880759,"58036","","","0","","America/Los_Angeles","0"
"7721020","7721020",Irwin Ln & Occidental Rd,38.42283706,-122.7879079,"58036","","","0","","America/Los_Angeles","0"
"7795800","7795800",Jefferson St & School St,38.8093802289,-123.0242082305,"58037","","","0","","America/Los_Angeles","0"
"7796000","7796000",Jefferson St & W First St,38.8039623296,-123.0204765646,"58037","","","0","","America/Los_Angeles","0"
"7795900","7795900",Jefferson St & W Fourth St,38.8070685174,-123.0226078512,"58037","","","0","","America/Los_Angeles","0"
"7797700","7797700",Jenner,38.4494169538,-123.1149881667,"58040","","","0","","America/Los_Angeles","0"
"7791800","7791800",Johnson St & Bell Rd,38.5464958097,-122.8134593287,"58035","","","0","","America/Los_Angeles","0"
"7751920","7751920",Kaiser Medical Center,38.35484583,-122.7079276,"58033","","","0","","America/Los_Angeles","0"
"7715750","7715750",Kaiser Stop / Bicentennial Ave,38.47010018,-122.724888,"58034","","","0","","America/Los_Angeles","0"
"7701050","7701050",Kaiser Stop / Bicentennial Ave,38.47034051,-122.7257001,"58034","","","0","","America/Los_Angeles","0"
"7720710","7720710",Keating Ave & Pitt Ave,38.40386046,-122.8271125,"58036","","","0","","America/Los_Angeles","0"
"7726500","7726500",Kenwood (Hwy 12 & Greene St),38.42035755,-122.5523973,"58038","","","0","","America/Los_Angeles","0"
"7734300","7734300",Kenwood (Hwy 12 & Greene St),38.42035131,-122.5521401,"58038","","","0","","America/Los_Angeles","0"
"7707410","7707410",Kings Circle & E Third St,38.8102707954,-123.0156434404,"58037","","","0","","America/Los_Angeles","0"
"7742840","7742840",LaBath Ave & Carlson Ct,38.3502491,-122.7212875,"58033","","","0","","America/Los_Angeles","0"
"7772010","7772010",LaBath Ave & RP Expressway,38.35062167,-122.7211343,"58033","","","0","","America/Los_Angeles","0"
"7772020","7772020",Labath & Martin,38.35542992,-122.7222666,"58033","","","0","","America/Los_Angeles","0"
"7742830","7742830",Labath & Martin,38.35527369,-122.7224293,"58033","","","0","","America/Los_Angeles","0"
"7772320","7772320",Laguna Dr & LaBath Ave,38.345528,-122.719175,"58033","","","0","","America/Los_Angeles","0"
"7738700","7738700",Laguna Park Way & Morris St,38.40520772,-122.8204207,"58036","","","0","","America/Los_Angeles","0"
"7764520","7764520",Laguna Park Way & Morris St,38.40513006,-122.8200281,"58036","","","0","","America/Los_Angeles","0"
"7764510","7764510",Laguna Park Way & Sebastopol Transit Hub,38.40438795,-122.8230619,"58036","","","0","","America/Los_Angeles","0"
"7738800","7738800",Laguna Park Way & Sebastopol Transit Hub,38.40412271,-122.8236151,"58036","","","0","","America/Los_Angeles","0"
"7785900","7785900",Lakeville Hwy & Baywood Dr,38.23276528,-122.6152987,"58033","","","0","","America/Los_Angeles","0"
"7785500","7785500",Lakeville Hwy & Baywood Dr,38.23314703,-122.6134885,"58033","","","0","","America/Los_Angeles","0"
"7785300","7785300",Lakeville Hwy & Casa Grande Rd,38.23389969,-122.6036133,"58033","","","0","","America/Los_Angeles","0"
"7786100","7786100",Lakeville Hwy & Casa Grande Rd,38.23354159,-122.603953,"58033","","","0","","America/Los_Angeles","0"
"7785100","7785100",Lakeville Hwy & Frates Rd,38.23471552,-122.5945552,"58033","","","0","","America/Los_Angeles","0"
"7786000","7786000",Lakeville Hwy & Marina,38.23307839,-122.6099946,"58033","","","0","","America/Los_Angeles","0"
"7785400","7785400",Lakeville Hwy & Marina Ave,38.23336161,-122.6100011,"58033","","","0","","America/Los_Angeles","0"
"7786200","7786200",Lakeville Hwy & S McDowell Blvd,38.23400178,-122.5994623,"58033","","","0","","America/Los_Angeles","0"
"7785200","7785200",Lakeville Hwy & S McDowell Blvd,38.2342772,-122.5996816,"58033","","","0","","America/Los_Angeles","0"
"7785700","7785700",Lakeville St & Caufield,38.23546956,-122.6232076,"58033","","","0","","America/Los_Angeles","0"
"7785800","7785800",Lakeville St & Caufield,38.23519425,-122.6219756,"58033","","","0","","America/Los_Angeles","0"
"7785600","7785600",Lakeville St & SB Hwy 101 on-ramp,38.23417966,-122.6192798,"58033","","","0","","America/Los_Angeles","0"
"7770600","7770600",Lancaster & Liman Way,38.32634116,-122.6915191,"58033","","","0","","America/Los_Angeles","0"
"7770700","7770700",Lancaster & Lincoln Ave,38.32864258,-122.6944695,"58033","","","0","","America/Los_Angeles","0"
"7770500","7770500",Lancaster & Lords Manor Way,38.32469699,-122.6905845,"58033","","","0","","America/Los_Angeles","0"
"7770400","7770400",Lancaster/Myrtle,38.32205842,-122.6894212,"58033","","","0","","America/Los_Angeles","0"
"7701910","7701910",Larkfield Shopping Center,38.50125011,-122.7515788,"58034","","","0","","America/Los_Angeles","0"
"7715000","7715000",Larkfield Shopping Center,38.50101805,-122.7517331,"58034","","","0","","America/Los_Angeles","0"
"7757200","7757200",Lawrence Jones Middle School,38.35167895,-122.6854621,"58033","","","0","","America/Los_Angeles","0"
"7774800","7774800",Lawrence Jones Middle School,38.35253656,-122.6857821,"58033","","","0","","America/Los_Angeles","0"
"7730730","7730730",Leveroni Rd & Fryer Creek Dr,38.27643114,-122.4654306,"58039","","","0","","America/Los_Angeles","0"
"7786710","7786710",Leveroni Rd & Palmer Ave,38.27619408,-122.4648714,"58039","","","0","","America/Los_Angeles","0"
"7790910","7790910",Los Amigos & Cordelia Ln,38.5555678756,-122.8165577352,"58035","","","0","","America/Los_Angeles","0"
"7790600","7790600",Los Amigos Rd & Foxwood Dr,38.5502759591,-122.8107930853,"58035","","","0","","America/Los_Angeles","0"
"7791000","7791000",Los Amigos Rd & Tabatha Way,38.5571219755,-122.818033724,"58035","","","0","","America/Los_Angeles","0"
"7790900","7790900",Los Amigos Rd & Valley Oak Ct,38.5541731388,-122.8152154863,"58035","","","0","","America/Los_Angeles","0"
"7790800","7790800",Los Amigos Ro & Lazy Creek Dr,38.5525984309,-122.8135303928,"58035","","","0","","America/Los_Angeles","0"
"7726310","7726310",Los Guilicos,38.44005808,-122.5806225,"58038","","","0","","America/Los_Angeles","0"
"7720880","7720880","Lucky's",38.40770957,-122.8399498,"58036","","","0","","America/Los_Angeles","0"
"7717300","7717300",Main St & Moscow Rd,38.46412774,-123.0104746,"58040","","","0","","America/Los_Angeles","0"
"7769700","7769700",Main St & Starett Hill Rd,38.464208,-123.0106893,"58040","","","0","","America/Los_Angeles","0"
"7762760","7762760",Manchester & Magnolia,38.32858921,-122.6797018,"58033","","","0","","America/Los_Angeles","0"
"7794300","7794300",March Ave & Healdsburg Ave,38.6261601152,-122.8720400408,"58035","","","0","","America/Los_Angeles","0"
"7714450","7714450",Mark West Springs Rd & Old Redwood Hwy,38.496407,-122.750122,"58034","","","0","","America/Los_Angeles","0"
"7701810","7701810",Mark West Springs Rd & Old Redwood Hwy,38.49658245,-122.7503067,"58034","","","0","","America/Los_Angeles","0"
"7728810","7728810",Maxwell Village on Hwy 12,38.29911987,-122.4753365,"58039","","","0","","America/Los_Angeles","0"
"7781800","7781800",Maxwell Village Shopping Center (inside),38.2996411,-122.4766137,"58039","","","0","","America/Los_Angeles","0"
"7792000","7792000",McClelland Dr & Duvander Ln,38.5482629974,-122.8161050765,"58035","","","0","","America/Los_Angeles","0"
"7791900","7791900",McClelland Dr & Honsa Ave,38.5483181172,-122.8145395341,"58035","","","0","","America/Los_Angeles","0"
"7747600","7747600",McDowell Blvd & Clegg St,38.26900206,-122.6602084,"58033","","","0","","America/Los_Angeles","0"
"7747700","7747700",McDowell Blvd & Corona Rd,38.26729842,-122.6582232,"58033","","","0","","America/Los_Angeles","0"
"7747800","7747800",McDowell Blvd & Corona Rd,38.26535263,-122.6547387,"58033","","","0","","America/Los_Angeles","0"
"7748200","7748200",McDowell Blvd & Dynamic St,38.25817813,-122.6419926,"58033","","","0","","America/Los_Angeles","0"
"7748510","7748510",McDowell Blvd & E Washington St,38.24970263,-122.6269924,"58033","","","0","","America/Los_Angeles","0"
"7748400","7748400",McDowell Blvd & Lynch Creek Way,38.25320418,-122.6331855,"58033","","","0","","America/Los_Angeles","0"
"7747400","7747400",McDowell Blvd & Old Redwood Hwy,38.27341725,-122.6656986,"58033","","","0","","America/Los_Angeles","0"
"7748300","7748300",McDowell Blvd & Rainer Ave,38.2557198,-122.6376979,"58033","","","0","","America/Los_Angeles","0"
"7747500","7747500",McDowell Blvd & Scott St,38.272242023,-122.6637211818,"58033","","","0","","America/Los_Angeles","0"
"7748000","7748000",McDowell Blvd & Southpoint,38.26093456,-122.6469814,"58033","","","0","","America/Los_Angeles","0"
"7748100","7748100",McDowell Blvd & Sunrise Parkway,38.25937467,-122.6441636,"58033","","","0","","America/Los_Angeles","0"
"7738620","7738620",McKinley Street & Brown Street,38.4037932069,-122.8216874491,"58033","","","0","","America/Los_Angeles","0"
"7738610","7738610",McKinley Street & Morris Street,38.4038915421,-122.8208036487,"58033","","","0","","America/Los_Angeles","0"
"7736900","7736900",Memorial Hospital,38.44305655,-122.7010683,"58034","","","0","","America/Los_Angeles","0"
"7723700","7723700",Memorial Hospital,38.44302404,-122.7004943,"58034","","","0","","America/Los_Angeles","0"
"7716400","7716400",Mendocino Ave & Benton,38.44802358,-122.7177412,"58034","","","0","","America/Los_Angeles","0"
"7715610","7715610",Mendocino Ave & Bicentennial Way,38.47245321,-122.7257566,"58034","","","0","","America/Los_Angeles","0"
"7701200","7701200",Mendocino Ave & Bicentennial Way,38.4710363,-122.7233788,"58034","","","0","","America/Los_Angeles","0"
"7715800","7715800",Mendocino Ave/ Bicentennial Way,38.46937261,-122.7222384,"58034","","","0","","America/Los_Angeles","0"
"7701100","7701100",Mendocino Ave & Chanate Rd,38.46559823,-122.7195326,"58034","","","0","","America/Los_Angeles","0"
"7715900","7715900",Mendocino Ave & Chanate Rd,38.46465344,-122.7193304,"58034","","","0","","America/Los_Angeles","0"
"7700300","7700300",Mendocino Ave & Cherry St,38.44453,-122.716873,"58034","","","0","","America/Los_Angeles","0"
"7716100","7716100",Mendocino Ave & Clement Ave,38.45925799,-122.7173229,"58034","","","0","","America/Los_Angeles","0"
"7700400","7700400",Mendocino Ave & College Ave,38.446148,-122.71756,"58034","","","0","","America/Los_Angeles","0"
"7700800","7700800",Mendocino Ave & Dexter St,38.45720892,-122.7171263,"58034","","","0","","America/Los_Angeles","0"
"7715600","7715600",Mendocino Ave & Fountain Grove Pkwy,38.47378954,-122.7274625,"58034","","","0","","America/Los_Angeles","0"
"7701300","7701300",Mendocino Ave & Fountain Grove Pkwy,38.4743317488,-122.7278767873,"58034","","","0","","America/Los_Angeles","0"
"7700600","7700600",Mendocino Ave & Ridgeway,38.44997874,-122.7174098,"58034","","","0","","America/Los_Angeles","0"
"7716300","7716300",Mendocino Ave & Ridgeway Ave,38.45095525,-122.717669,"58034","","","0","","America/Los_Angeles","0"
"7716000","7716000",Mendocino Ave & Schurman Dr,38.4628473,-122.7182234,"58034","","","0","","America/Los_Angeles","0"
"7700900","7700900",Mendocino Ave & Silva Ave,38.45851776,-122.7170832,"58034","","","0","","America/Los_Angeles","0"
"7701000","7701000",Mendocino Ave & Steele Ln,38.46212323,-122.717528,"58034","","","0","","America/Los_Angeles","0"
"7720870","7720870",Mill Station Rd & Hwy 116,38.4124101,-122.8434301,"58036","","","0","","America/Los_Angeles","0"
"7767700","7767700",Mirabel Rd & Davis Rd,38.48076899,-122.8947293,"58036","","","0","","America/Los_Angeles","0"
"7719000","7719000",Mirabel Rd Ext & River Rd,38.49324369,-122.8960599,"58036","","","0","","America/Los_Angeles","0"
"7719200","7719200",Mirabel Rd & Giusti Rd,38.48098175,-122.8949012,"58036","","","0","","America/Los_Angeles","0"
"7767600","7767600",Mirabel Rd & Hwy 116,38.47437824,-122.8947608,"58036","","","0","","America/Los_Angeles","0"
"7719300","7719300",Mirabel Rd & Hwy 116,38.47435722,-122.8949966,"58036","","","0","","America/Los_Angeles","0"
"7767800","7767800",Mirabel Rd & Trenton Rd,38.48972103,-122.8949689,"58036","","","0","","America/Los_Angeles","0"
"7719100","7719100",Mirabel Rd & Trenton Rd,38.48998309,-122.8951477,"58036","","","0","","America/Los_Angeles","0"
"7736300","7736300",Mission Blvd & Hwy 12,38.45825507,-122.6738639,"58034","","","0","","America/Los_Angeles","0"
"7724300","7724300",Mission Blvd & Hwy 12,38.45828634,-122.6730349,"58034","","","0","","America/Los_Angeles","0"
"7788300","7788300",Mitchell Ln & 10th Hole Dr,38.5328403664,-122.8044319428,"58035","","","0","","America/Los_Angeles","0"
"7788200","7788200",Mitchell Ln & 8th Hole Dr,38.5327649641,-122.8093547791,"58035","","","0","","America/Los_Angeles","0"
"7717200","7717200",Monte Rio (Creekside Park),38.4608333037,-123.0118469834,"58040","","","0","","America/Los_Angeles","0"
"7769500","7769500",Monte Rio & Hwy 116,38.46778253,-123.0110265,"58040","","","0","","America/Los_Angeles","0"
"7724100","7724100",Montgomery Dr & Jacqueline,38.45220904,-122.6747247,"58034","","","0","","America/Los_Angeles","0"
"7736500","7736500",Montgomery Dr & Jacqueline,38.45201926,-122.6754025,"58034","","","0","","America/Los_Angeles","0"
"7723610","7723610",Montgomery Dr & Second St,38.4428393241,-122.7041764846,"58034","","","0","","America/Los_Angeles","0"
"7736910","7736910",Montgomery Dr & Second St,38.4430057367,-122.7047259098,"58034","","","0","","America/Los_Angeles","0"
"7723800","7723800",Montgomery Dr & Shortt Rd,38.44542542,-122.6917853,"58034","","","0","","America/Los_Angeles","0"
"7736800","7736800",Montgomery Dr & Shortt Rd,38.44567189,-122.6915052,"58034","","","0","","America/Los_Angeles","0"
"7724200","7724200",Montgomery Dr & Summerfield Dr,38.45429074,-122.672257,"58034","","","0","","America/Los_Angeles","0"
"7736400","7736400",Montgomery Dr & Summerfield Dr,38.45454668,-122.6724547,"58034","","","0","","America/Los_Angeles","0"
"7724000","7724000",Montgomery Dr & Yulupa Ave,38.44952402,-122.6789718,"58034","","","0","","America/Los_Angeles","0"
"7736600","7736600",Montgomery Dr & Yulupa Ave,38.44936432,-122.6795069,"58034","","","0","","America/Los_Angeles","0"
"7736700","7736700",Montgomery Village,38.44722429,-122.6858981,"58034","","","0","","America/Los_Angeles","0"
"7723900","7723900",Montgomery Village,38.44673427,-122.6868985,"58034","","","0","","America/Los_Angeles","0"
"7765400","7765400",Moorland Ave & Bellevue Ave,38.4008598006,-122.7184747707,"58034","","","0","","America/Los_Angeles","0"
"7766100","7766100",Moorland Ave & Bellevue Ave,38.40087418,-122.7186316,"58034","","","0","","America/Los_Angeles","0"
"7765100","7765100",Moorland Ave & btwn Todd/W Robles,38.391327,-122.7184342,"58034","","","0","","America/Los_Angeles","0"
"7766400","7766400",Moorland Ave & btwn W Robles/Todd,38.39213027,-122.7185054,"58034","","","0","","America/Los_Angeles","0"
"7765300","7765300",Moorland Ave & Gio Dr,38.39846152,-122.7184614,"58034","","","0","","America/Los_Angeles","0"
"7766200","7766200",Moorland Ave & Thistle Ln,38.39883714,-122.7186205,"58034","","","0","","America/Los_Angeles","0"
"7766500","7766500",Moorland Ave & Todd Rd,38.38774971,-122.7186006,"58034","","","0","","America/Los_Angeles","0"
"7765000","7765000",Moorland Ave & Todd Rd,38.38782416,-122.7185116,"58034","","","0","","America/Los_Angeles","0"
"7765200","7765200",Moorland Ave & West Robles Ave,38.39438405,-122.7184786,"58034","","","0","","America/Los_Angeles","0"
"7766300","7766300",Moorland Ave & West Robles Ave,38.39455905,-122.7186306,"58034","","","0","","America/Los_Angeles","0"
"7738600","7738600",Morris St & Hwy 12,38.40359583,-122.8191429,"58036","","","0","","America/Los_Angeles","0"
"7717330","7717330",Moscow Rd & Casini Ranch,38.46028036,-123.0453249,"58040","","","0","","America/Los_Angeles","0"
"7799300","7799300",Moscow Rd & Casini Ranch,38.4602232586,-123.0449767043,"58040","","","0","","America/Los_Angeles","0"
"7799600","7799600",Moscow Rd & Main St,38.4646059177,-123.0105785732,"58040","","","0","","America/Los_Angeles","0"
"7769600","7769600",Moscow Rd & Main St,38.46488131,-123.0107238,"58040","","","0","","America/Los_Angeles","0"
"7799500","7799500",Moscow Rd & Russian River Ave,38.4737335853,-123.0217095343,"58040","","","0","","America/Los_Angeles","0"
"7799400","7799400",Moscow Rd & West St,38.4729395946,-123.0247554359,"58040","","","0","","America/Los_Angeles","0"
"7717320","7717320",Moscow Rd & West St,38.47298178,-123.0248064,"58040","","","0","","America/Los_Angeles","0"
"7770300","7770300",Myrtle Ave & Hahn,38.32155322,-122.6928668,"58033","","","0","","America/Los_Angeles","0"
"7770100","7770100",Myrtle Ave & Macklin Dr,38.3214074,-122.7013407,"58033","","","0","","America/Los_Angeles","0"
"7770200","7770200",Myrtle Ave & Veronda Way,38.32151504,-122.6975935,"58033","","","0","","America/Los_Angeles","0"
"7718050","7718050",Neeley Rd & Hwy 116,38.4983537704,-122.9936005348,"58040","","","0","","America/Los_Angeles","0"
"7713700","7713700",N Laughlin Rd & Copperhill Parkway,38.50902884,-122.8003805,"58035","","","0","","America/Los_Angeles","0"
"7713130","7713130",N Laughlin Rd & Copperhill Parkway,38.50908955,-122.8001925,"58035","","","0","","America/Los_Angeles","0"
"7755400","7755400",N McDowell Blvd & Clegg St,38.26937392,-122.6602573,"58033","","","0","","America/Los_Angeles","0"
"7755200","7755200",N McDowell Blvd & Corona Rd,38.26542516,-122.6544285,"58033","","","0","","America/Los_Angeles","0"
"7754800","7754800",N McDowell Blvd & Dynamic St,38.25804034,-122.6413586,"58033","","","0","","America/Los_Angeles","0"
"7754400","7754400",N McDowell Blvd (Lucchesi Park),38.2523146,-122.6311875,"58033","","","0","","America/Los_Angeles","0"
"7754500","7754500",N McDowell Blvd & Lynch Creek Way,38.25338689,-122.6330373,"58033","","","0","","America/Los_Angeles","0"
"7755600","7755600",N McDowell Blvd & Old Redwood Hwy,38.27399231,-122.6662042,"58033","","","0","","America/Los_Angeles","0"
"7748500","7748500",N McDowell Blvd (Petaluma Plaza),38.25147329,-122.6301351,"58033","","","0","","America/Los_Angeles","0"
"7754700","7754700",N McDowell Blvd & Rainer Ave,38.25653481,-122.6386881,"58033","","","0","","America/Los_Angeles","0"
"7754600","7754600",N McDowell Blvd & Rainer Ave,38.25566879,-122.637162,"58033","","","0","","America/Los_Angeles","0"
"7755300","7755300",N McDowell Blvd & Rand St,38.26777574,-122.6585469,"58033","","","0","","America/Los_Angeles","0"
"7755500","7755500",N McDowell Blvd & Scott St,38.2725157454,-122.6637136744,"58033","","","0","","America/Los_Angeles","0"
"7755010","7755010",N McDowell Blvd & Southpoint,38.2632336142,-122.650538536,"58033","","","0","","America/Los_Angeles","0"
"7755000","7755000",N McDowell Blvd & Southpoint,38.26170508,-122.6477803,"58033","","","0","","America/Los_Angeles","0"
"7754900","7754900",N McDowell Blvd & Sunrise Parkway,38.25964185,-122.6441673,"58033","","","0","","America/Los_Angeles","0"
"7795300","7795300",North Main St & Fourth St,38.8085350737,-123.0178231563,"58037","","","0","","America/Los_Angeles","0"
"7720720","7720720",North Main St & Wilton Ave,38.403637,-122.825272,"58036","","","0","","America/Los_Angeles","0"
"7794600","7794600",N University St & Monte Vista Ave,38.6239653229,-122.8638259863,"58035","","","0","","America/Los_Angeles","0"
"7735000","7735000",Oakmont Dr & Deerfield Circle,38.43490589,-122.5968417,"58038","","","0","","America/Los_Angeles","0"
"7735100","7735100",Oakmont Dr & Hillsdale Dr,38.43774846,-122.5994435,"58038","","","0","","America/Los_Angeles","0"
"7725700","7725700",Oakmont Dr & Hillsdale Dr,38.43712803,-122.5994973,"58038","","","0","","America/Los_Angeles","0"
"7725600","7725600",Oakmont Dr & Laurel Leaf Pl,38.43987843,-122.6033053,"58038","","","0","","America/Los_Angeles","0"
"7725800","7725800",Oakmont Dr & RidgeGreen Dr,38.43516372,-122.5981164,"58038","","","0","","America/Los_Angeles","0"
"7725500","7725500",Oakmont Dr & White Oak,38.44156298,-122.6050402,"58038","","","0","","America/Los_Angeles","0"
"7735200","7735200",Oakmont Dr & White Oak,38.44126442,-122.6043073,"58038","","","0","","America/Los_Angeles","0"
"7734900","7734900",Oakmont Golf Course,38.43222382,-122.5930211,"58038","","","0","","America/Los_Angeles","0"
"7717000","7717000",Occidental (Bohemian Hwy & Hill St),38.40962859,-122.9486721,"58040","","","0","","America/Los_Angeles","0"
"7776610","7776610",Occidental Rd & Fulton Rd,38.4276366972,-122.7711035458,"58036","","","0","","America/Los_Angeles","0"
"7721040","7721040",Occidental Rd & Merced Ave,38.4243147557,-122.774558231,"58036","","","0","","America/Los_Angeles","0"
"7704400","7704400",Old Redwood Hwy &,38.56633599,-122.8312631,"58035","","","0","","America/Los_Angeles","0"
"7701400","7701400",Old Redwood Hwy &,38.47935233,-122.7326428,"58034","","","0","","America/Los_Angeles","0"
"7750200","7750200",Old Redwood Hwy & Adobe Rd,38.30331586,-122.681021,"58033","","","0","","America/Los_Angeles","0"
"7750100","7750100",Old Redwood Hwy & Adobe Rd,38.29986755,-122.6739944,"58033","","","0","","America/Los_Angeles","0"
"7714600","7714600",Old Redwood Hwy & Airport Blvd,38.51063803,-122.7630671,"58035","","","0","","America/Los_Angeles","0"
"7702200","7702200",Old Redwood Hwy & Airport Blvd,38.51180039,-122.7641909,"58035","","","0","","America/Los_Angeles","0"
"7712600","7712600",Old Redwood Hwy & Airport Blvd,38.51273422,-122.7657755,"58035","","","0","","America/Los_Angeles","0"
"7703200","7703200",Old Redwood Hwy & Alden Ln,38.54340506,-122.8000289,"58035","","","0","","America/Los_Angeles","0"
"7711400","7711400",Old Redwood Hwy & Alden Ln,38.54313685,-122.8001706,"58035","","","0","","America/Los_Angeles","0"
"7711920","7711920",Old Redwood Hwy & Anna Dr,38.530375,-122.782642,"58035","","","0","","America/Los_Angeles","0"
"7714900","7714900",Old Redwood Hwy & Ascot,38.50312948,-122.757188,"58035","","","0","","America/Los_Angeles","0"
"7702000","7702000",Old Redwood Hwy & Ascot Dr,38.50331782,-122.7571013,"58035","","","0","","America/Los_Angeles","0"
"7711900","7711900",Old Redwood Hwy & Billington Ln,38.53530859,-122.7882376,"58035","","","0","","America/Los_Angeles","0"
"7710100","7710100",Old Redwood Hwy & Btwn Eastside/Limerick,38.5827618,-122.8461949,"58035","","","0","","America/Los_Angeles","0"
"7704700","7704700",Old Redwood Hwy & Btwn Eastside/Limerick,38.5828075,-122.8460282,"58035","","","0","","America/Los_Angeles","0"
"7701600","7701600",Old Redwood Hwy & Cardinal Newman HS,38.49145401,-122.7410319,"58034","","","0","","America/Los_Angeles","0"
"7715400","7715400",Old Redwood Hwy & Cardinal Newman HS,38.49092684,-122.740733,"58034","","","0","","America/Los_Angeles","0"
"7715300","7715300",Old Redwood Hwy & Chelsea Dr,38.49344113,-122.7439234,"58034","","","0","","America/Los_Angeles","0"
"7701800","7701800",Old Redwood Hwy & Chelsea Drive,38.4953885578,-122.7460411191,"58034","","","0","","America/Los_Angeles","0"
"7762400","7762400",Old Redwood Hwy & Commerce Blvd,38.33175672,-122.7112888,"58033","","","0","","America/Los_Angeles","0"
"7711910","7711910",Old Redwood Hwy & Deanna Pl,38.53269295,-122.7851346,"58035","","","0","","America/Los_Angeles","0"
"7702010","7702010",Old Redwood Hwy & Deerwood Dr,38.50551709,-122.7587711,"58035","","","0","","America/Los_Angeles","0"
"7714800","7714800",Old Redwood Hwy & Deerwood Dr,38.50543389,-122.7590062,"58035","","","0","","America/Los_Angeles","0"
"7712500","7712500",Old Redwood Hwy & Donna Drive/Fulton Rd,38.51667376,-122.7706368,"58035","","","0","","America/Los_Angeles","0"
"7750500","7750500",Old Redwood Hwy & East Railroad Ave,38.31470927,-122.6946934,"58033","","","0","","America/Los_Angeles","0"
"7710200","7710200",Old Redwood Hwy & Eastside Rd,38.57782174,-122.8433622,"58035","","","0","","America/Los_Angeles","0"
"7704600","7704600",Old Redwood Hwy & Eastside Rd,38.57778632,-122.8431234,"58035","","","0","","America/Los_Angeles","0"
"7710300","7710300",Old Redwood Hwy & Eastside Rd,38.57460008,-122.8419131,"58035","","","0","","America/Los_Angeles","0"
"7704500","7704500",Old Redwood Hwy & Eastside Rd,38.57451945,-122.84165,"58035","","","0","","America/Los_Angeles","0"
"7749800","7749800",Old Redwood Hwy & Ely Rd,38.28435374,-122.6672606,"58033","","","0","","America/Los_Angeles","0"
"7714700","7714700",Old Redwood Hwy & Faught Rd,38.50853376,-122.7599479,"58035","","","0","","America/Los_Angeles","0"
"7702100","7702100",Old Redwood Hwy & Faught Rd,38.50878194,-122.7598039,"58035","","","0","","America/Los_Angeles","0"
"7750400","7750400",Old Redwood Hwy & Fern Ave,38.30971175,-122.6903806,"58033","","","0","","America/Los_Angeles","0"
"7745200","7745200",Old Redwood Hwy & Fern Avenue/Highland,38.30975919,-122.6906597,"58033","","","0","","America/Los_Angeles","0"
"7702300","7702300",Old Redwood Hwy & Fulton Rd,38.51566174,-122.7692227,"58035","","","0","","America/Los_Angeles","0"
"7750820","7750820",Old Redwood Hwy & George St,38.32875685,-122.708137,"58033","","","0","","America/Los_Angeles","0"
"7791400","7791400",Old Redwood Hwy & Godfrey Dr,38.5540346677,-122.8177997038,"58035","","","0","","America/Los_Angeles","0"
"7745800","7745800",Old Redwood Hwy & Goodwin Ave,38.28354879,-122.6676657,"58033","","","0","","America/Los_Angeles","0"
"7745700","7745700",Old Redwood Hwy & Hatchery Rd,38.28963909,-122.6665872,"58033","","","0","","America/Los_Angeles","0"
"7749900","7749900",Old Redwood Hwy & Hatchery Rd,38.29000293,-122.6663126,"58033","","","0","","America/Los_Angeles","0"
"7711500","7711500",Old Redwood Hwy & Hembree Ln,38.5414302107,-122.7968165583,"58035","","","0","","America/Los_Angeles","0"
"7703100","7703100",Old Redwood Hwy & Hembree Ln,38.54186574,-122.7972778,"58035","","","0","","America/Los_Angeles","0"
"7701500","7701500",Old Redwood Hwy (Kaiser Stein Bldg),38.48272423,-122.7344032,"58034","","","0","","America/Los_Angeles","0"
"7715500","7715500",Old Redwood Hwy (Kaiser Stein Bldg),38.48283847,-122.7346954,"58034","","","0","","America/Los_Angeles","0"
"7712000","7712000",Old Redwood Hwy & Kendall Way,38.527706,-122.780775,"58035","","","0","","America/Los_Angeles","0"
"7711300","7711300",Old Redwood Hwy & Lakewood Dr,38.54596715,-122.8060887,"58035","","","0","","America/Los_Angeles","0"
"7703300","7703300",Old Redwood Hwy & Lakewood Dr,38.54625232,-122.8061443,"58035","","","0","","America/Los_Angeles","0"
"7701700","7701700",Old Redwood Hwy & La Mancha Apartments,38.49373114,-122.7439674,"58034","","","0","","America/Los_Angeles","0"
"7750810","7750810",Old Redwood Hwy & La Plaza,38.32710469,-122.7066699,"58033","","","0","","America/Los_Angeles","0"
"7715100","7715100",Old Redwood Hwy & Larkfield Maples Ct,38.49924528,-122.749655,"58034","","","0","","America/Los_Angeles","0"
"7710000","7710000",Old Redwood Hwy & Limerick Ln,38.58809557,-122.8493676,"58035","","","0","","America/Los_Angeles","0"
"7704800","7704800",Old Redwood Hwy & Limerick Ln,38.5886666,-122.8494604,"58035","","","0","","America/Los_Angeles","0"
"7713470","7713470",Old Redwood Hwy & Market St,38.5499276743,-122.8138864061,"58035","","","0","","America/Los_Angeles","0"
"7791600","7791600",Old Redwood Hwy & Market St,38.5496863353,-122.8139162393,"58035","","","0","","America/Los_Angeles","0"
"7715200","7715200",Old Redwood Hwy & Mark West Springs Rd,38.49587144,-122.746945,"58034","","","0","","America/Los_Angeles","0"
"7701900","7701900",Old Redwood Hwy & Mark West Springs Rd,38.4988560367,-122.7491226515,"58034","","","0","","America/Los_Angeles","0"
"7749700","7749700",Old Redwood Hwy & McDowell Blvd,38.27630122,-122.6689325,"58033","","","0","","America/Los_Angeles","0"
"7745900","7745900",Old Redwood Hwy & McDowell/Redwood Way,38.27722178,-122.669082,"58033","","","0","","America/Los_Angeles","0"
"7791200","7791200",Old Redwood Hwy & Miller Ln,38.5588570249,-122.8216374225,"58035","","","0","","America/Los_Angeles","0"
"7750300","7750300",Old Redwood Hwy & Minnesota Ave,38.30719898,-122.6877487,"58033","","","0","","America/Los_Angeles","0"
"7745300","7745300",Old Redwood Hwy & Minnesota Ave,38.30641002,-122.686891,"58033","","","0","","America/Los_Angeles","0"
"7750700","7750700",Old Redwood Hwy & Page Ave,38.3239580121,-122.7039613196,"58033","","","0","","America/Los_Angeles","0"
"7744900","7744900",Old Redwood Hwy & Page St,38.32430876,-122.7044383,"58033","","","0","","America/Los_Angeles","0"
"7745400","7745400",Old Redwood Hwy & Penngrove Ave,38.30307132,-122.6810598,"58033","","","0","","America/Los_Angeles","0"
"7745500","7745500",Old Redwood Hwy & Penngrove Ave,38.30046413,-122.6758683,"58033","","","0","","America/Los_Angeles","0"
"7750000","7750000",Old Redwood Hwy & Petaluma Hill Rd,38.29459138,-122.6668434,"58033","","","0","","America/Los_Angeles","0"
"7745600","7745600",Old Redwood Hwy & Petaluma Hill Rd,38.29430211,-122.6670066,"58033","","","0","","America/Los_Angeles","0"
"7703000","7703000",Old Redwood Hwy & Pleasant Ave,38.54029979,-122.7937979,"58035","","","0","","America/Los_Angeles","0"
"7711600","7711600",Old Redwood Hwy & Pleasant Ave,38.54025006,-122.7942947,"58035","","","0","","America/Los_Angeles","0"
"7712300","7712300",Old Redwood Hwy & Plymouth Way,38.5200498922,-122.7743028102,"58035","","","0","","America/Los_Angeles","0"
"7702400","7702400",Old Redwood Hwy & Plymouth Way,38.52004655,-122.7740887,"58035","","","0","","America/Los_Angeles","0"
"7791300","7791300",Old Redwood Hwy & Rio Ruso Dr,38.5572387865,-122.8203265712,"58035","","","0","","America/Los_Angeles","0"
"7702700","7702700",Old Redwood Hwy & Savannah Way,38.53167894,-122.7837409,"58035","","","0","","America/Los_Angeles","0"
"7702800","7702800",Old Redwood Hwy & Shamrock Circle,38.53480177,-122.7873834,"58035","","","0","","America/Los_Angeles","0"
"7712100","7712100",Old Redwood Hwy & Shiloh Rd,38.52519074,-122.7790434,"58035","","","0","","America/Los_Angeles","0"
"7702500","7702500",Old Redwood Hwy & Shiloh Rd,38.52200804,-122.7759014,"58035","","","0","","America/Los_Angeles","0"
"7702600","7702600",Old Redwood Hwy & Shiloh Rd,38.52634997,-122.7795453,"58035","","","0","","America/Los_Angeles","0"
"7712200","7712200",Old Redwood Hwy & Shiloh Rd,38.521731,-122.775906,"58035","","","0","","America/Los_Angeles","0"
"7711800","7711800",Old Redwood Hwy & Shira St,38.5377637,-122.7909856,"58035","","","0","","America/Los_Angeles","0"
"7711700","7711700",Old Redwood Hwy & Shira St,38.53907503,-122.7924649,"58035","","","0","","America/Los_Angeles","0"
"7704300","7704300",Old Redwood Hwy & Starr Rd,38.56461423,-122.8283657,"58035","","","0","","America/Los_Angeles","0"
"7710500","7710500",Old Redwood Hwy & Starr Rd,38.56420861,-122.8280399,"58035","","","0","","America/Los_Angeles","0"
"7762410","7762410",Old Redwood Hwy & St Joseph Way,38.3302090881,-122.7098086497,"58033","","","0","","America/Los_Angeles","0"
"7750830","7750830",Old Redwood Hwy & St Joseph Way,38.33043601,-122.7097035,"58033","","","0","","America/Los_Angeles","0"
"7702900","7702900",Old Redwood Hwy & Thrushwing,38.53794826,-122.7908582,"58035","","","0","","America/Los_Angeles","0"
"7750600","7750600",Old Redwood Hwy & Valparaiso,38.32238485,-122.7027804,"58033","","","0","","America/Los_Angeles","0"
"7745000","7745000",Old Redwood Hwy & Valparaiso Ave,38.32048088,-122.7016937,"58033","","","0","","America/Los_Angeles","0"
"7710400","7710400",Old Redwood Hwy & West of Hwy 101,38.56596714,-122.8309824,"58035","","","0","","America/Los_Angeles","0"
"7745100","7745100",Old Redwood Hwy & West Railroad Ave,38.31446418,-122.6946144,"58033","","","0","","America/Los_Angeles","0"
"7762500","7762500",Old Redwood Hwy & William Dr,38.32848395,-122.7082086,"58033","","","0","","America/Los_Angeles","0"
"7791500","7791500",Old Redwood Hwy & Windsor Rd,38.5531760509,-122.8171461845,"58035","","","0","","America/Los_Angeles","0"
"7713480","7713480",Old Redwood Hwy & Windsor Rd,38.5523561394,-122.816264083,"58035","","","0","","America/Los_Angeles","0"
"7791700","7791700",Old Redwood Hwy & Windsor River Rd,38.5476631704,-122.8109879292,"58035","","","0","","America/Los_Angeles","0"
"7718030","7718030",Orchard Ave & Montesano Ave,38.4873899577,-123.012934096,"58040","","","0","","America/Los_Angeles","0"
"7718040","7718040",Orchard Ave & River Ln,38.4896846112,-123.0137682848,"58040","","","0","","America/Los_Angeles","0"
"7794000","7794000",Parkland Farms,38.6377489406,-122.8730207968,"58035","","","0","","America/Los_Angeles","0"
"7794100","7794100",Parkland Farms Blvd & Arbor Way,38.6399447268,-122.8670429177,"58035","","","0","","America/Los_Angeles","0"
"7764500","7764500",Petaluma Ave & Abbott,38.40071985,-122.8221431,"58036","","","0","","America/Los_Angeles","0"
"7749200","7749200",Petaluma Blvd & Btwn Cherry&Magnolia,38.24289931,-122.6440597,"58033","","","0","","America/Los_Angeles","0"
"7749500","7749500",Petaluma Blvd & Corona Rd,38.26028752,-122.6611146,"58033","","","0","","America/Los_Angeles","0"
"7746010","7746010",Petaluma Blvd & Emerald Dr,38.26236763,-122.6659093,"58033","","","0","","America/Los_Angeles","0"
"7749400","7749400",Petaluma Blvd & Gossage Ave,38.25549211,-122.6517316,"58033","","","0","","America/Los_Angeles","0"
"7746200","7746200",Petaluma Blvd & Gossage Ave,38.25484665,-122.6513943,"58033","","","0","","America/Los_Angeles","0"
"7749110","7749110",Petaluma Blvd & Kent St,38.2395887308,-122.6431335257,"58033","","","0","","America/Los_Angeles","0"
"7746410","7746410",Petaluma Blvd & Kent St,38.23979036,-122.6433605,"58033","","","0","","America/Los_Angeles","0"
"7746310","7746310",Petaluma Blvd & Magnolia Ave,38.244208,-122.644692,"58033","","","0","","America/Los_Angeles","0"
"7749100","7749100",Petaluma Blvd & Mary (Downtown Petaluma),38.2365389,-122.6415435,"58033","","","0","","America/Los_Angeles","0"
"7749510","7749510",Petaluma Blvd & Metz Ln,38.26448036,-122.667944,"58033","","","0","","America/Los_Angeles","0"
"7749600","7749600",Petaluma Blvd N & Stony Pt Rd,38.26951289,-122.6703298,"58033","","","0","","America/Los_Angeles","0"
"7746000","7746000",Petaluma Blvd N & Stony Pt Rd,38.26866632,-122.6708947,"58033","","","0","","America/Los_Angeles","0"
"7749300","7749300",Petaluma Blvd & Shasta Ave,38.24692128,-122.6451768,"58033","","","0","","America/Los_Angeles","0"
"7746300","7746300",Petaluma Blvd & Shasta Ln,38.24694506,-122.6454322,"58033","","","0","","America/Los_Angeles","0"
"7746100","7746100",Petaluma Blvd & Skillman Ln,38.25965994,-122.6603096,"58033","","","0","","America/Los_Angeles","0"
"7746400","7746400",Petaluma Blvd & West St,38.24215062,-122.644033,"58033","","","0","","America/Los_Angeles","0"
"7747900","7747900",Petaluma Estates MHP,38.26406909,-122.6524885,"58033","","","0","","America/Los_Angeles","0"
"7754220","7754220",Petaluma Fairgrounds Park & Ride,38.24255811,-122.6313492,"58033","","","0","","America/Los_Angeles","0"
"7747200","7747200",Petaluma Hill Rd & Adobe Rd,38.29960772,-122.6665129,"58033","","","0","","America/Los_Angeles","0"
"7755800","7755800",Petaluma Hill Rd & Adobe Rd,38.29956043,-122.6663439,"58033","","","0","","America/Los_Angeles","0"
"7758000","7758000",Petaluma Hill Rd & Aston Ave,38.42426169,-122.70829,"58034","","","0","","America/Los_Angeles","0"
"7740220","7740220",Petaluma Hill Rd & Colgan Ave,38.42307158,-122.7078588,"58034","","","0","","America/Los_Angeles","0"
"7756400","7756400",Petaluma Hill Rd & Curtis Dr,38.33352119,-122.666654,"58033","","","0","","America/Los_Angeles","0"
"7755900","7755900",Petaluma Hill Rd & Dutch Ln,38.30413233,-122.6663911,"58033","","","0","","America/Los_Angeles","0"
"7747100","7747100",Petaluma Hill Rd & Dutch Ln,38.30445665,-122.6665857,"58033","","","0","","America/Los_Angeles","0"
"7746600","7746600",Petaluma Hill Rd & East Cotati Ave,38.33516647,-122.666865,"58033","","","0","","America/Los_Angeles","0"
"7747000","7747000",Petaluma Hill Rd & East Railroad Ave,38.30877965,-122.6665965,"58033","","","0","","America/Los_Angeles","0"
"7756000","7756000",Petaluma Hill Rd & East Railroad Ave,38.30904114,-122.6664287,"58033","","","0","","America/Los_Angeles","0"
"7746900","7746900",Petaluma Hill Rd & East Railroad Ave,38.31399225,-122.6668043,"58033","","","0","","America/Los_Angeles","0"
"7757800","7757800",Petaluma Hill Rd & Hunter Ln,38.3855537,-122.6879628,"58034","","","0","","America/Los_Angeles","0"
"7740240","7740240",Petaluma Hill Rd & Hunter Ln,38.38485199,-122.6876788,"58034","","","0","","America/Los_Angeles","0"
"7740230","7740230",Petaluma Hill Rd & Kawana Springs Rd,38.4161152392,-122.7043673937,"58034","","","0","","America/Los_Angeles","0"
"7757900","7757900",Petaluma Hill Rd & Kawana Springs Rd,38.41698222,-122.7041053,"58034","","","0","","America/Los_Angeles","0"
"7747300","7747300",Petaluma Hill Rd & Old Redwood Hwy,38.29658017,-122.6664842,"58033","","","0","","America/Los_Angeles","0"
"7756300","7756300","Petaluma Hill Rd & Robert's Rd",38.32940918,-122.6666285,"58033","","","0","","America/Los_Angeles","0"
"7746700","7746700","Petaluma Hill Rd & Robert's Rd",38.3282859,-122.6668176,"58033","","","0","","America/Los_Angeles","0"
"7756200","7756200",Petaluma Hill Rd & Valley House Dr,38.32085142,-122.6666625,"58033","","","0","","America/Los_Angeles","0"
"7746800","7746800",Petaluma Hill Rd & Valley House Dr,38.32127903,-122.6669116,"58033","","","0","","America/Los_Angeles","0"
"7755700","7755700",Petaluma Hill Rd & Woodward Ave,38.29729696,-122.6663154,"58033","","","0","","America/Los_Angeles","0"
"7754100","7754100",Petaluma Transit Mall,38.236645,-122.636513,"58033","","","0","","America/Los_Angeles","0"
"7756100","7756100",Petluma Hill Rd & East Railroad Ave,38.31459884,-122.6665737,"58033","","","0","","America/Los_Angeles","0"
"7720840","7720840",Pleasant Hill Ave & Valentine Ave,38.40207898,-122.8397814,"58036","","","0","","America/Los_Angeles","0"
"7798000","7798000",Portuguese Beach,38.3777562918,-123.0798332274,"58040","","","0","","America/Los_Angeles","0"
"7794700","7794700",Powell Ave & Fitch St,38.6207664204,-122.8668547121,"58035","","","0","","America/Los_Angeles","0"
"7794400","7794400",Prentice Ave & March Ave,38.6267861847,-122.8666548598,"58035","","","0","","America/Los_Angeles","0"
"7731000","7731000",Pueblo Serena MHP,38.28616649,-122.4690151,"58039","","","0","","America/Los_Angeles","0"
"7730100","7730100",Pueblo Serena MHP,38.28661593,-122.4691378,"58039","","","0","","America/Los_Angeles","0"
"7734700","7734700",Pythian Rd & Golf Ct,38.42929266,-122.5832924,"58038","","","0","","America/Los_Angeles","0"
"7726300","7726300",Pythian Rd & Hwy 12,38.43479869,-122.5784843,"58038","","","0","","America/Los_Angeles","0"
"7734500","7734500",Pythian Rd & Hwy 12,38.43444386,-122.5788454,"58038","","","0","","America/Los_Angeles","0"
"7726200","7726200",Pythian Rd & Oaktrail Dr,38.43181263,-122.5802524,"58038","","","0","","America/Los_Angeles","0"
"7734600","7734600",Pythian Rd & Oaktrail Dr,38.43186861,-122.5803882,"58038","","","0","","America/Los_Angeles","0"
"7726100","7726100",Pythian Rd & Pythian Ct,38.42881122,-122.5839619,"58038","","","0","","America/Los_Angeles","0"
"7734800","7734800",Pythian Rd & Valley Oaks,38.43084343,-122.5867573,"58038","","","0","","America/Los_Angeles","0"
"7720860","7720860",Ragle Park - Ragle Rd & Covert Ln,38.4051196283,-122.8452476853,"58036","","","0","","America/Los_Angeles","0"
"7782400","7782400",Railroad Ave & Boyes Blvd,38.31139868,-122.4920783,"58039","","","0","","America/Los_Angeles","0"
"7731710","7731710",Railroad Ave & Craig Ave,38.30589593,-122.4886073,"58039","","","0","","America/Los_Angeles","0"
"7782600","7782600",Railroad Ave & Craig Ave,38.30650699,-122.4890656,"58039","","","0","","America/Los_Angeles","0"
"7731720","7731720",Railroad Ave & Toy Ave,38.30932889,-122.4903282,"58039","","","0","","America/Los_Angeles","0"
"7782500","7782500",Railroad Ave & Toy Ln,38.30842079,-122.4900298,"58039","","","0","","America/Los_Angeles","0"
"7775500","7775500",Railroad St & West Third St,38.43583788,-122.7201699,"58034","","","0","","America/Los_Angeles","0"
"7747950","7747950",Rainier Ave & Acadia Dr,38.26202381,-122.6301829,"58033","","","0","","America/Los_Angeles","0"
"7754620","7754620",Rainier Ave & Acadia Dr,38.26200457,-122.6298689,"58033","","","0","","America/Los_Angeles","0"
"7747960","7747960",Rainier Ave & Maria Dr,38.25872677,-122.6325735,"58033","","","0","","America/Los_Angeles","0"
"7754610","7754610",Rainier Ave & Maria Dr,38.25826859,-122.6327059,"58033","","","0","","America/Los_Angeles","0"
"7790400","7790400","Raley's Shopping Center",38.5492273512,-122.8051478676,"58035","","","0","","America/Los_Angeles","0"
"7772710","7772710","Raley's Town Center",38.34669,-122.7054595,"58033","","","0","","America/Los_Angeles","0"
"7770800","7770800",Rancho Cotate High School,38.33968746,-122.6859462,"58033","","","0","","America/Los_Angeles","0"
"7773900","7773900",Rancho Feliz Mobile Home Park,38.34487961,-122.7148058,"58033","","","0","","America/Los_Angeles","0"
"7772200","7772200",Rancho Verde Mobile Home Park,38.349432,-122.728745,"58033","","","0","","America/Los_Angeles","0"
"7715720","7715720",Range Ave & @ Paulin Creek,38.46322967,-122.7325171,"58034","","","0","","America/Los_Angeles","0"
"7701080","7701080",Range Ave & @ Paulin Creek,38.46269277,-122.732721,"58034","","","0","","America/Los_Angeles","0"
"7701060","7701060",Range Ave & Russel Ave,38.46832138,-122.7327758,"58034","","","0","","America/Los_Angeles","0"
"7715740","7715740",Range Ave & Russel Ave,38.46962622,-122.7324752,"58034","","","0","","America/Los_Angeles","0"
"7715730","7715730",Range Ave & State Farm Dr,38.46655536,-122.732523,"58034","","","0","","America/Los_Angeles","0"
"7701070","7701070",Range Ave & State Farm Dr,38.46558338,-122.7327481,"58034","","","0","","America/Los_Angeles","0"
"7701090","7701090",Range Ave & Steele Ln,38.46037227,-122.7326246,"58034","","","0","","America/Los_Angeles","0"
"7715710","7715710",Range Ave & Steele Ln,38.46076203,-122.7323834,"58034","","","0","","America/Los_Angeles","0"
"7772310","7772310",Reading Cinemas (on Labath Ave),38.346641,-122.72127,"58033","","","0","","America/Los_Angeles","0"
"7742810","7742810",Redwood Dr & Business Park Dr,38.3583650381,-122.7136964356,"58033","","","0","","America/Los_Angeles","0"
"7742900","7742900",Redwood Dr & Business Park Dr,38.35440948,-122.7137076,"58033","","","0","","America/Los_Angeles","0"
"7742700","7742700",Redwood Dr & Commerce Blvd,38.3655538,-122.7135683,"58033","","","0","","America/Los_Angeles","0"
"7742720","7742720","Redwood Dr / Commerce Blvd (Taco Bell across from Chili's)",38.3649875835,-122.7136479465,"58033","","","0","","America/Los_Angeles","0"
"7751730","7751730",Redwood Dr / Golf Course Dr (Graton Resort),38.3621345716,-122.7144537349,"58033","","","0","","America/Los_Angeles","0"
"7742710","7742710",Redwood Dr / Golf Course Dr (Graton Resort),38.363702322,-122.7149339161,"58033","","","0","","America/Los_Angeles","0"
"7742800","7742800",Redwood Dr & Golf Course Dr (Graton Resort),38.3626913212,-122.71517356,"58033","","","0","","America/Los_Angeles","0"
"7774000","7774000",Redwood Dr & Portal,38.34150976,-122.7133656,"58033","","","0","","America/Los_Angeles","0"
"7761800","7761800",Redwood Dr & RP Expressway,38.34768745,-122.7166747,"58033","","","0","","America/Los_Angeles","0"
"7761700","7761700",Redwood Dr & RP Expressway,38.345704,-122.7155439,"58033","","","0","","America/Los_Angeles","0"
"7743000","7743000",Redwood Dr & RP Expressway,38.3524656,-122.7149946,"58033","","","0","","America/Los_Angeles","0"
"7751720","7751720",Redwood Dr & RP Expressway (Boathouse Sushi),38.34899059,-122.7167299,"58033","","","0","","America/Los_Angeles","0"
"7743100","7743100",Redwood Dr & RP Expressway (Chevron Oil Stop),38.34942966,-122.7170484,"58033","","","0","","America/Los_Angeles","0"
"7768500","7768500",Rio Nido,38.51934255,-122.9793565,"58040","","","0","","America/Los_Angeles","0"
"7718400","7718400",Rio Nido,38.51940815,-122.9778392,"58040","","","0","","America/Los_Angeles","0"
"7718300","7718300",River Rd,38.51350048,-122.9836682,"58040","","","0","","America/Los_Angeles","0"
"7768300","7768300",River Rd,38.5041628,-122.9404752,"58040","","","0","","America/Los_Angeles","0"
"7718600","7718600",River Rd,38.50410574,-122.9405973,"58040","","","0","","America/Los_Angeles","0"
"7768900","7768900",River Rd & Armstrong Woods Rd,38.50217629,-122.9968357,"58040","","","0","","America/Los_Angeles","0"
"7718000","7718000",River Rd & Armstrong Woods Rd,38.50196802,-122.996923,"58040","","","0","","America/Los_Angeles","0"
"7718200","7718200",River Rd & Bonita Ave,38.5073407919,-122.9890269276,"58040","","","0","","America/Los_Angeles","0"
"7768700","7768700",River Rd & Bonita Ave,38.50740281,-122.9891434,"58040","","","0","","America/Los_Angeles","0"
"7768600","7768600",River Rd & Foothill Blvd,38.51501579,-122.9833127,"58040","","","0","","America/Los_Angeles","0"
"7714430","7714430",River Rd & Fulton Rd,38.49634363,-122.7674106,"58034","","","0","","America/Los_Angeles","0"
"7701860","7701860",River Rd & Fulton Rd,38.49663884,-122.7714459,"58034","","","0","","America/Los_Angeles","0"
"7768100","7768100","River Rd & Grays Ct (Ac Berry's Market)",38.50918152,-122.9236538,"58040","","","0","","America/Los_Angeles","0"
"7701870","7701870",River Rd & Laughlin Rd,38.49311072,-122.7880104,"58036","","","0","","America/Los_Angeles","0"
"7767900","7767900",River Rd & Mirabel Rd,38.49361363,-122.8956529,"58036","","","0","","America/Los_Angeles","0"
"7718500","7718500",River Rd & Odd Fellows Park Rd,38.51024692,-122.9664692,"58040","","","0","","America/Los_Angeles","0"
"7768400","7768400",River Rd & Odd Fellows Park Rd,38.51027234,-122.9661932,"58040","","","0","","America/Los_Angeles","0"
"7718100","7718100",River Rd & Old River Rd,38.5047026376,-122.9921295673,"58040","","","0","","America/Los_Angeles","0"
"7718900","7718900",River Rd & Rio Vista,38.49962306,-122.9040428,"58040","","","0","","America/Los_Angeles","0"
"7718710","7718710",River Rd & River Dr (East),38.50925504,-122.9222597,"58040","","","0","","America/Los_Angeles","0"
"7718800","7718800",River Rd & Scenic Rd,38.50574801,-122.913842,"58040","","","0","","America/Los_Angeles","0"
"7768000","7768000",River Rd & Scenic Rd,38.50603184,-122.9137523,"58040","","","0","","America/Los_Angeles","0"
"7701880","7701880",River Rd & Trenton-Healdsburg Rd,38.48847958,-122.8553353,"58036","","","0","","America/Los_Angeles","0"
"7719010","7719010",River Rd & Trenton-Healdsburg Rd,38.48802264,-122.8548663,"58036","","","0","","America/Los_Angeles","0"
"7701830","7701830",River Rd & West of Hwy 101,38.49650345,-122.7611762,"58034","","","0","","America/Los_Angeles","0"
"7768200","7768200",River Rd & Westside Rd,38.50677621,-122.9303604,"58040","","","0","","America/Los_Angeles","0"
"7718700","7718700",River Rd & Westside Rd,38.50818105,-122.9290174,"58040","","","0","","America/Los_Angeles","0"
"7714440","7714440",River Rd & W of Hwy 101,38.49628523,-122.760916,"58034","","","0","","America/Los_Angeles","0"
"7719020","7719020",River Rd & Woolsey Rd,38.49322016,-122.787103,"58036","","","0","","America/Los_Angeles","0"
"7793200","7793200",Rivers Bend Club House,38.6099007443,-122.8465710807,"58035","Flag Stop","","0","","America/Los_Angeles","0"
"7793100","7793100",Riverside Club House,38.6095400275,-122.8502920728,"58035","Flag Stop","","0","","America/Los_Angeles","0"
"7729600","7729600",Riverside Dr & Petaluma Ave,38.29401191,-122.4773754,"58039","","","0","","America/Los_Angeles","0"
"7731500","7731500",Riverside Dr & Petaluma Ave,38.29473063,-122.4781539,"58039","","","0","","America/Los_Angeles","0"
"7729500","7729500",Riverside Dr & Solano Ave,38.29673473,-122.4812125,"58039","","","0","","America/Los_Angeles","0"
"7731600","7731600",Riverside Dr & Solano Ave,38.29658959,-122.4807293,"58039","","","0","","America/Los_Angeles","0"
"7793000","7793000",Riverview Club House,38.6095221332,-122.8518218965,"58035","Flag Stop","","0","","America/Los_Angeles","0"
"7752200","7752200","Robert's Lake Rd / Golf Course Dr",38.3638720321,-122.7104990923,"58033","","","0","","America/Los_Angeles","0"
"7742000","7742000","Robert's Lake Rd / Golf Course Dr",38.36359305,-122.7107047,"58033","","","0","","America/Los_Angeles","0"
"7771600","7771600",Rohnert Park Library,38.34853603,-122.7038554,"58033","","","0","","America/Los_Angeles","0"
"7772700","7772700",Rohnert Park SMART Station,38.3481521214,-122.7019273068,"58033","","","0","","America/Los_Angeles","0"
"7771510","7771510",Rohnert Park SMART Station,38.3484755958,-122.7015158032,"58033","","","0","","America/Los_Angeles","0"
"7739500","7739500",Ross Rd & Kamuela Rd,38.44192618,-122.870603,"58036","","","0","","America/Los_Angeles","0"
"7719900","7719900",Ross Rd & Kamuela Rd,38.44178284,-122.8706797,"58036","","","0","","America/Los_Angeles","0"
"7761900","7761900",RP Expressway & Hwy 101,38.34818649,-122.7141267,"58033","","","0","","America/Los_Angeles","0"
"7751710","7751710",RP Expressway & Hwy 101,38.348587,-122.7118547,"58033","","","0","","America/Los_Angeles","0"
"7772100","7772100",RP Expressway & LaBath,38.349149,-122.723618,"58033","","","0","","America/Los_Angeles","0"
"7772000","7772000",RP Expressway & LaBath,38.3491677229,-122.7219639818,"58033","","","0","","America/Los_Angeles","0"
"7772300","7772300",RP Expressway & LaBath,38.348844,-122.723836,"58033","","","0","","America/Los_Angeles","0"
"7772500","7772500",RP Expressway & Redwood Dr,38.34824865,-122.7180242,"58033","","","0","","America/Los_Angeles","0"
"7771900","7771900",RP Expressway & Redwood Dr,38.3485255,-122.7179762,"58033","","","0","","America/Los_Angeles","0"
"7774910","7774910",RP Expressway & Snyder Ln,38.34568132,-122.6845804,"58033","","","0","","America/Los_Angeles","0"
"7715760","7715760",Russell & Ventura (Kaiser Stop),38.46908844,-122.7244746,"58034","","","0","","America/Los_Angeles","0"
"7701040","7701040",Russell & Ventura (Kaiser Stop),38.46920628,-122.7257582,"58034","","","0","","America/Los_Angeles","0"
"7793400","7793400",Russian River Pines Apartments,38.6049213299,-122.8613446609,"58035","","","0","","America/Los_Angeles","0"
"7793500","7793500",Russian River Trailer Park,38.6040072429,-122.8625457602,"58035","","","0","","America/Los_Angeles","0"
"7792500","7792500",Safeway,38.6096864785,-122.8733461661,"58035","","","0","","America/Los_Angeles","0"
"7798100","7798100",Salmon Creek Beach,38.3556914549,-123.0662585569,"58040","","","0","","America/Los_Angeles","0"
"7780000","7780000",San Rafael Transit Center,37.97116752,-122.5230338,"58033","","","0","","America/Los_Angeles","0"
"7740300","7740300",Santa Rosa Ave & Barham Ave,38.42739573,-122.7132341,"58034","","","0","","America/Los_Angeles","0"
"7753700","7753700",Santa Rosa Ave & Barham Ave,38.4275483,-122.7128235,"58034","","","0","","America/Los_Angeles","0"
"7741100","7741100",Santa Rosa Ave & Bellevue Ave,38.40419841,-122.7136344,"58034","","","0","","America/Los_Angeles","0"
"7753100","7753100",Santa Rosa Ave & Bellevue Ave,38.40373878,-122.7133053,"58034","","","0","","America/Los_Angeles","0"
"7740900","7740900",Santa Rosa Ave & Burt St,38.40925313,-122.7137078,"58034","","","0","","America/Los_Angeles","0"
"7752900","7752900",Santa Rosa Ave & Butterfly Ln,38.39664861,-122.713364,"58034","","","0","","America/Los_Angeles","0"
"7753000","7753000",Santa Rosa Ave & Castro Ct,38.39919208,-122.7133464,"58034","","","0","","America/Los_Angeles","0"
"7753600","7753600",Santa Rosa Ave & Colgan Ave,38.42172335,-122.713345,"58034","","","0","","America/Los_Angeles","0"
"7753500","7753500",Santa Rosa Ave & Colgan Ave (Market Place),38.41917727,-122.7133076,"58034","","","0","","America/Los_Angeles","0"
"7740600","7740600",Santa Rosa Ave & Commercial Ct (Market Place),38.41831752,-122.7136858,"58034","","","0","","America/Los_Angeles","0"
"7753200","7753200",Santa Rosa Ave & Court Rd,38.40753712,-122.7132943,"58034","","","0","","America/Los_Angeles","0"
"7741000","7741000",Santa Rosa Ave & Court St,38.40694343,-122.7136154,"58034","","","0","","America/Los_Angeles","0"
"7752800","7752800",Santa Rosa Ave & East Robles Ave,38.39364653,-122.7134059,"58034","","","0","","America/Los_Angeles","0"
"7741300","7741300",Santa Rosa Ave & East Robles Ave,38.39552828,-122.7136883,"58034","","","0","","America/Los_Angeles","0"
"7741400","7741400",Santa Rosa Ave & East Robles Ave,38.39285094,-122.713726,"58034","","","0","","America/Los_Angeles","0"
"7740400","7740400",Santa Rosa Ave & Flower St,38.42394662,-122.7136529,"58034","","","0","","America/Los_Angeles","0"
"7740800","7740800",Santa Rosa Ave & Hearn Ave,38.41120177,-122.7136356,"58034","","","0","","America/Los_Angeles","0"
"7752300","7752300",Santa Rosa Ave & Horn Ave,38.37628493,-122.7133048,"58034","","","0","","America/Los_Angeles","0"
"7740200","7740200",Santa Rosa Ave & Maple Ave,38.43172196,-122.7114073,"58034","","","0","","America/Los_Angeles","0"
"7753900","7753900",Santa Rosa Ave & Maple Ave,38.43176189,-122.7112025,"58034","","","0","","America/Los_Angeles","0"
"7754000","7754000",Santa Rosa Ave & Mill St,38.43403946,-122.7116827,"58034","","","0","","America/Los_Angeles","0"
"7752400","7752400",Santa Rosa Ave & Mountain View Ave,38.38156553,-122.7134087,"58034","","","0","","America/Los_Angeles","0"
"7741800","7741800",Santa Rosa Ave & Mountain View Ave,38.38035816,-122.7136211,"58034","","","0","","America/Los_Angeles","0"
"7741200","7741200",Santa Rosa Ave & Northstar Dr,38.39874911,-122.713673,"58034","","","0","","America/Los_Angeles","0"
"7741900","7741900",Santa Rosa Ave & Scenic Ave,38.37606368,-122.7136121,"58034","","","0","","America/Los_Angeles","0"
"7740100","7740100",Santa Rosa Ave & Sebastopol Ave,38.43393453,-122.7119073,"58034","","","0","","America/Los_Angeles","0"
"7752700","7752700",Santa Rosa Ave & Todd Rd,38.38958579,-122.7133909,"58034","","","0","","America/Los_Angeles","0"
"7741500","7741500",Santa Rosa Ave & Todd Rd,38.38975155,-122.7137317,"58034","","","0","","America/Los_Angeles","0"
"7741600","7741600",Santa Rosa Ave/ Todd Rd,38.38644509,-122.7137469,"58034","","","0","","America/Los_Angeles","0"
"7752600","7752600",Santa Rosa Ave/ Todd Rd,38.38750973,-122.713414,"58034","","","0","","America/Los_Angeles","0"
"7753300","7753300",Santa Rosa Ave & Yolanda Ave,38.41180565,-122.7133466,"58034","","","0","","America/Los_Angeles","0"
"7716200","7716200",Santa Rosa Junior College,38.45387671,-122.7175856,"58034","","","0","","America/Los_Angeles","0"
"7700100","7700100",Santa Rosa Transit Mall,38.43868566,-122.7137267,"58034","","","0","","America/Los_Angeles","0"
"7762620","7762620",Santaro Way & E Cotati Ave (Cotati Depot),38.3311581503,-122.6913970221,"58033","","","0","","America/Los_Angeles","0"
"7784620","7784620",Schellville  - Hwy 116 & 121,38.23591427,-122.4614861,"58039","","","0","","America/Los_Angeles","0"
"7780100","7780100",Schellville Hwy 116 & 121,38.23595679,-122.4613023,"58039","","","0","","America/Los_Angeles","0"
"7797400","7797400",S East St & Lake St,38.8045029977,-123.0138806676,"58037","","","0","","America/Los_Angeles","0"
"7760000","7760000",Sebastopol Post Office,38.40065804,-122.8235102,"58036","","","0","","America/Los_Angeles","0"
"7722100","7722100",Sebastopol Rd & Avalon Ave,38.42994208,-122.7276989,"58034","","","0","","America/Los_Angeles","0"
"7776500","7776500",Sebastopol Rd & Billie Jean St,38.42540353,-122.7626005,"58034","","","0","","America/Los_Angeles","0"
"7721900","7721900",Sebastopol Rd & Burbank Ave,38.42839759,-122.7340787,"58034","","","0","","America/Los_Angeles","0"
"7776000","7776000",Sebastopol Rd & Burbank Rd,38.42858803,-122.7343003,"58034","","","0","","America/Los_Angeles","0"
"7776400","7776400",Sebastopol Rd & Corporate Ctr Pkwy,38.4260678,-122.7539894,"58034","","","0","","America/Los_Angeles","0"
"7721300","7721300",Sebastopol Rd & Doubles Dr,38.4252112,-122.7616723,"58034","","","0","","America/Los_Angeles","0"
"7721800","7721800",Sebastopol Rd & Hampton Way,38.4275369,-122.7378369,"58034","","","0","","America/Los_Angeles","0"
"7776100","7776100",Sebastopol Rd & Hampton Way,38.42767581,-122.7381264,"58034","","","0","","America/Los_Angeles","0"
"7776300","7776300",Sebastopol Rd & Lombardi Ln,38.4263991,-122.7490453,"58034","","","0","","America/Los_Angeles","0"
"7776200","7776200",Sebastopol Rd & Stony Point Rd,38.42688558,-122.7426622,"58034","","","0","","America/Los_Angeles","0"
"7721700","7721700",Sebastopol Rd & Stony Point Rd,38.42661118,-122.7434526,"58034","","","0","","America/Los_Angeles","0"
"7722000","7722000",Sebastopol Rd & West Ave,38.42924547,-122.7306624,"58034","","","0","","America/Los_Angeles","0"
"7775900","7775900",Sebastopol Rd & West Ave,38.43017052,-122.7276876,"58034","","","0","","America/Los_Angeles","0"
"7776600","7776600",Sebastopol Rd & Wright Rd,38.42492172,-122.7685422,"58034","","","0","","America/Los_Angeles","0"
"7792700","7792700",Senior Center,38.6106643201,-122.8690835745,"58035","","","0","","America/Los_Angeles","0"
"7720740","7720740",Senior Center,38.40257205,-122.8260864,"58036","","","0","","America/Los_Angeles","0"
"7712040","7712040",Shiloh Center & Wal-Mart (Hembree),38.526131,-122.787926,"58035","","","0","","America/Los_Angeles","0"
"7702520","7702520",Shiloh Center & Wal-Mart (Hembree),38.52636961,-122.7888748,"58035","","","0","","America/Los_Angeles","0"
"7712030","7712030",Shiloh Center & Wal-Mart (McFarlane),38.527721,-122.788651,"58035","","","0","","America/Los_Angeles","0"
"7789000","7789000",Shiloh Rd & Conde Ln,38.5256802127,-122.7965187411,"58035","","","0","","America/Los_Angeles","0"
"7702510","7702510",Shiloh Rd & Old Redwood Hwy,38.52580463,-122.781513,"58035","","","0","","America/Los_Angeles","0"
"7785710","7785710",SMART Petaluma Station (D St),38.236548948,-122.6344697911,"58033","","","0","","America/Los_Angeles","0"
"7774500","7774500",Snyder Ln & Eleanor St,38.36159747,-122.6858496,"58033","","","0","","America/Los_Angeles","0"
"7774600","7774600",Snyder Ln & Eleanor St,38.35948127,-122.6858463,"58033","","","0","","America/Los_Angeles","0"
"7757400","7757400",Snyder Ln & Eleanor St,38.36020383,-122.6856466,"58033","","","0","","America/Los_Angeles","0"
"7774400","7774400",Snyder Ln & Golf Course Dr,38.36693261,-122.6858995,"58033","","","0","","America/Los_Angeles","0"
"7757500","7757500",Snyder Ln & Golf Course Dr,38.36648897,-122.6856118,"58033","","","0","","America/Los_Angeles","0"
"7757600","7757600",Snyder Ln & Holly,38.3694557907,-122.6856377721,"58033","","","0","","America/Los_Angeles","0"
"7774300","7774300",Snyder Ln & Holly Ave,38.36982997,-122.6858966,"58033","","","0","","America/Los_Angeles","0"
"7774700","7774700",Snyder Ln & Keiser,38.35677569,-122.6858597,"58033","","","0","","America/Los_Angeles","0"
"7757700","7757700",Snyder Ln & Mountain View Ave,38.380432,-122.685822,"58034","","","0","","America/Los_Angeles","0"
"7740250","7740250",Snyder Ln & Mountain View Ave,38.378834,-122.685951,"58034","","","0","","America/Los_Angeles","0"
"7775000","7775000",Snyder Ln & RP Expressway,38.34492622,-122.685618,"58033","","","0","","America/Los_Angeles","0"
"7757100","7757100",Snyder Ln & RP Expressway,38.34823037,-122.6854454,"58033","","","0","","America/Los_Angeles","0"
"7774900","7774900",Snyder Ln & RP Express Way,38.34787819,-122.685632,"58033","","","0","","America/Los_Angeles","0"
"7756900","7756900",Snyder Ln & Southwest Blvd,38.3403001,-122.6853028,"58033","","","0","","America/Los_Angeles","0"
"7713300","7713300",Sonoma Co Airport Terminal Stop,38.5099327225,-122.8044173377,"58035","","","0","","America/Los_Angeles","0"
"7727300","7727300",Sonoma Dev Center,38.34874293,-122.5168092,"58038","","","0","","America/Los_Angeles","0"
"7733500","7733500",Sonoma Dev Center,38.34900159,-122.5168446,"58038","","","0","","America/Los_Angeles","0"
"7787100","7787100",Sonoma Marketplace (Mid-Center Stop),38.29047059,-122.4624928,"58039","","","0","","America/Los_Angeles","0"
"7784000","7784000",Sonoma Marketplace (Mid-Center Stop),38.29056248,-122.4625124,"58039","","","0","","America/Los_Angeles","0"
"7783000","7783000",Sonoma Marketplace (on West Napa),38.2922349,-122.4621196,"58039","","","0","","America/Los_Angeles","0"
"7781500","7781500",Sonoma Marketplace (Whole Foods),38.29158153,-122.4622362,"58039","","","0","","America/Los_Angeles","0"
"7747940","7747940",Sonoma Mtn Pkwy (Ac Petaluma SRJC),38.26661921,-122.6371181,"58033","","","0","","America/Los_Angeles","0"
"7747920","7747920",Sonoma Mtn Pkwy & Colombard Rd,38.26883044,-122.6428137,"58033","","","0","","America/Los_Angeles","0"
"7754660","7754660",Sonoma Mtn Pkwy & Ely Rd,38.2689426,-122.6439137,"58033","","","0","","America/Los_Angeles","0"
"7747910","7747910",Sonoma Mtn Pkwy & Maria Dr,38.26803525,-122.6489003,"58033","","","0","","America/Los_Angeles","0"
"7754670","7754670",Sonoma Mtn Pkwy & Maria Dr,38.26824192,-122.6490768,"58033","","","0","","America/Los_Angeles","0"
"7754640","7754640",Sonoma Mtn Pkwy (Petaluma SRJC),38.26737704,-122.6378794,"58033","","","0","","America/Los_Angeles","0"
"7754630","7754630",Sonoma Mtn Pkwy & Rainier Ave,38.26294282,-122.6300462,"58033","","","0","","America/Los_Angeles","0"
"7747930","7747930",Sonoma Mtn Pkwy & Reisling,38.26843848,-122.6404032,"58033","","","0","","America/Los_Angeles","0"
"7754650","7754650",Sonoma Mtn Pkwy & Reisling,38.26903145,-122.6409865,"58033","","","0","","America/Los_Angeles","0"
"7730500","7730500",Sonoma Plaza,38.29226799,-122.4580372,"58039","","","0","","America/Los_Angeles","0"
"7756600","7756600",Sonoma State University,38.33807478,-122.6750043,"58033","","","0","","America/Los_Angeles","0"
"7786900","7786900",Sonoma Valley Hospital,38.28848503,-122.4655984,"58039","","","0","","America/Los_Angeles","0"
"7784200","7784200",Sonoma Valley Hospital,38.2886293,-122.4660909,"58039","","","0","","America/Los_Angeles","0"
"7764400","7764400",Sonoma West Medical Ctr,38.39692224,-122.8201819,"58036","","","0","","America/Los_Angeles","0"
"7760100","7760100",South Main St & Palm Ave,38.3960519,-122.8210083,"58036","","","0","","America/Los_Angeles","0"
"7797300","7797300",South St & Cloverdale Blvd,38.8007967352,-123.016202733,"58037","","","0","","America/Los_Angeles","0"
"7771300","7771300",Southwest Blvd & Adrian Dr,38.33620656,-122.7049658,"58033","","","0","","America/Los_Angeles","0"
"7771200","7771200",Southwest Blvd & Burton Ave,38.33983129,-122.7004793,"58033","","","0","","America/Los_Angeles","0"
"7770900","7770900",Southwest Blvd & Camino Colegio,38.3406575,-122.6924422,"58033","","","0","","America/Los_Angeles","0"
"7771000","7771000",Southwest Blvd & Country Club Dr,38.34142841,-122.6944266,"58033","","","0","","America/Los_Angeles","0"
"7771100","7771100",Southwest Blvd & Seedfarm Dr,38.34141781,-122.6969639,"58033","","","0","","America/Los_Angeles","0"
"7721400","7721400",SR Corporate Center (The Lakes),38.42599396,-122.7512049,"58034","","","0","","America/Los_Angeles","0"
"7764800","7764800",Standish Ave & Sutton Pl,38.39081543,-122.7233273,"58034","","","0","","America/Los_Angeles","0"
"7766800","7766800",Standish Ave & Sutton Pl,38.3907609,-122.7231599,"58034","","","0","","America/Los_Angeles","0"
"7766900","7766900",Standish Ave & W Robles Ave,38.39384828,-122.723046,"58034","","","0","","America/Los_Angeles","0"
"7710900","7710900",Starr Rd & Buckingham Dr,38.54878039,-122.8261309,"58035","","","0","","America/Los_Angeles","0"
"7703700","7703700",Starr Rd & Buckingham Dr,38.54878559,-122.8259323,"58035","","","0","","America/Los_Angeles","0"
"7710800","7710800",Starr Rd & Coleen Dr,38.55366945,-122.8261566,"58035","","","0","","America/Los_Angeles","0"
"7703900","7703900",Starr Rd & Colleen Dr,38.55397225,-122.825971,"58035","","","0","","America/Los_Angeles","0"
"7710600","7710600",Starr Rd & Entrada,38.55896779,-122.8261991,"58035","","","0","","America/Los_Angeles","0"
"7704000","7704000",Starr Rd & Gumview Rd,38.55636434,-122.8259637,"58035","","","0","","America/Los_Angeles","0"
"7710700","7710700",Starr Rd & Gumview Rd,38.55622282,-122.8262255,"58035","","","0","","America/Los_Angeles","0"
"7703800","7703800",Starr Rd & Stellar Ln,38.55126375,-122.8259735,"58035","","","0","","America/Los_Angeles","0"
"7704200","7704200",Starr Rd & Twin Oaks Ln,38.55979085,-122.8259572,"58035","","","0","","America/Los_Angeles","0"
"7751910","7751910",State Farm Dr & City Hall Dr,38.35045232,-122.7058571,"58033","","","0","","America/Los_Angeles","0"
"7751930","7751930",State Farm Dr & Commerce Blvd,38.3574955106,-122.7123659849,"58033","","","0","","America/Los_Angeles","0"
"7772720","7772720",State Farm Dr & Enterprise Dr,38.34525565,-122.7043932,"58033","","","0","","America/Los_Angeles","0"
"7724800","7724800",St Francis Ctr (Hwy 12 & Calistoga Rd),38.46475266,-122.6536173,"58034","","","0","","America/Los_Angeles","0"
"7735800","7735800",St Francis Ctr (Hwy 12 & Calistoga Rd),38.464987,-122.6524638,"58034","","","0","","America/Los_Angeles","0"
"7771050","7771050",Technology Middle School,38.339404957,-122.7006311862,"58033","","","0","","America/Los_Angeles","0"
"7771010","7771010",Technology Middle School,38.33932777,-122.7001032,"58033","","","0","","America/Los_Angeles","0"
"7770740","7770740",Technology Middle School,38.339344162,-122.6998642087,"58033","","","0","","America/Los_Angeles","0"
"7780200","7780200",Temelec - Arnold Dr & Watmaugh Rd,38.2598051,-122.4828819,"58039","","","0","","America/Los_Angeles","0"
"7784610","7784610",Temelec - Arnold Dr & Watmaugh Rd,38.25997553,-122.4833148,"58039","","","0","","America/Los_Angeles","0"
"7786700","7786700",Temelec Circle & Almeria Dr,38.26737975,-122.4905274,"58039","","","0","","America/Los_Angeles","0"
"7784500","7784500",Temelec Circle & Almeria Dr,38.26717447,-122.4906072,"58039","","","0","","America/Los_Angeles","0"
"7784600","7784600",Temelec Circle & Mission Dr,38.2654404,-122.4893495,"58039","","","0","","America/Los_Angeles","0"
"7786600","7786600",Temelec Circle & Mission Dr,38.26552377,-122.4891456,"58039","","","0","","America/Los_Angeles","0"
"7706800","7706800",Theresa Dr,38.76796009,-122.9943246,"58037","","","0","","America/Los_Angeles","0"
"7708100","7708100",Theresa Dr & Hwy 101,38.76766068,-122.9945439,"58037","","","0","","America/Los_Angeles","0"
"7798200","7798200",The Tides (Bodega Bay),38.3286943774,-123.0445250304,"58040","","","0","","America/Los_Angeles","0"
"7737000","7737000",Third St & Brookwood,38.44265692,-122.7069169,"58034","","","0","","America/Los_Angeles","0"
"7723600","7723600",Third St & E St,38.441212,-122.7098719,"58034","","","0","","America/Los_Angeles","0"
"7722400","7722400",Third St & Railroad St,38.4367548783,-122.719441765,"58034","","","0","","America/Los_Angeles","0"
"7766700","7766700",Todd Rd & Standish Ave,38.38726903,-122.7226446,"58034","","","0","","America/Los_Angeles","0"
"7764900","7764900",Todd Rd & Standish Ave,38.38707702,-122.7214575,"58034","","","0","","America/Los_Angeles","0"
"7796410","7796410",Treadway Blvd & Cloverdale Blvd,38.7836563624,-123.0133071987,"58037","","","0","","America/Los_Angeles","0"
"7782010","7782010",Valletti Dr  & Lake St,38.3219131989,-122.490285784,"58039","","","0","","America/Los_Angeles","0"
"7782000","7782000",Valletti Dr  & Lake St,38.32174772,-122.489945,"58039","","","0","","America/Los_Angeles","0"
"7726000","7726000",Valley Oaks & Pythian Rd,38.43074626,-122.587388,"58038","","","0","","America/Los_Angeles","0"
"7731900","7731900",Verano Ave & Main St,38.30270313,-122.4784528,"58039","","","0","","America/Los_Angeles","0"
"7728900","7728900",Verano Ave & Main St,38.30294243,-122.4779746,"58039","","","0","","America/Los_Angeles","0"
"7729000","7729000",Verano Ave (outside FAHA),38.30284298,-122.4808773,"58039","","","0","","America/Los_Angeles","0"
"7729100","7729100",Verano Ave & Willow St,38.30235123,-122.4853811,"58039","","","0","","America/Los_Angeles","0"
"7731800","7731800",Verano Ave & Willow St,38.3023881,-122.4846345,"58039","","","0","","America/Los_Angeles","0"
"7786610","7786610",Via Colombard & Carnation,38.2640845906,-122.4976170176,"58039","","","0","","America/Los_Angeles","0"
"7717310","7717310",Villa Grande,38.4737310047,-123.0215232191,"58040","","","0","","America/Los_Angeles","0"
"7742100","7742100",Wal-Mart (parking lot),38.36828957,-122.7153847,"58033","","","0","","America/Los_Angeles","0"
"7746500","7746500",Washington & Petaluma Blvd (Downtown Petaluma),38.2357086,-122.6407987,"58033","","","0","","America/Los_Angeles","0"
"7748900","7748900",Washington St & Grey St,38.23647686,-122.6390952,"58033","","","0","","America/Los_Angeles","0"
"7786500","7786500",Watmaugh Rd & Bear Flag Rd,38.25812983,-122.490781,"58039","","","0","","America/Los_Angeles","0"
"7784800","7784800",Watmaugh Rd & Bear Flag Rd,38.25811141,-122.4911749,"58039","","","0","","America/Los_Angeles","0"
"7796100","7796100",West First Street & Cloverdale Blvd,38.8050881523,-123.0172324327,"58037","","","0","","America/Los_Angeles","0"
"7730900","7730900",West MacArthur St & 4th St West,38.2856323,-122.4671959,"58039","","","0","","America/Los_Angeles","0"
"7713900","7713900",Westwind Blvd & Airport Blvd,38.50906653,-122.7957391,"58035","","","0","","America/Los_Angeles","0"
"7713110","7713110",Westwind Blvd & Airport Blvd,38.50902829,-122.7959075,"58035","","","0","","America/Los_Angeles","0"
"7720750","7720750",Wilton Ave & Florence Ave,38.40199041,-122.828764,"58036","","","0","","America/Los_Angeles","0"
"7787500","7787500",Windsor Depot (Emily Rose Circle),38.5477930573,-122.8170393356,"58035","","","0","","America/Los_Angeles","0"
"7787600","7787600",Windsor Rd & Ginny Dr,38.54439875,-122.8168942,"58035","","","0","","America/Los_Angeles","0"
"7713490","7713490",Windsor Rd & Howard Dr,38.5507532106,-122.8168945035,"58035","","","0","","America/Los_Angeles","0"
"7788100","7788100",Windsor Rd & Mitchell Ln,38.5326514269,-122.8135263103,"58035","","","0","","America/Los_Angeles","0"
"7787700","7787700",Windsor Rd & Plant Rd,38.5402983444,-122.8169333577,"58035","","","0","","America/Los_Angeles","0"
"7787900","7787900",Windsor Rd & Reiman Ln,38.53643558,-122.8168868,"58035","","","0","","America/Los_Angeles","0"
"7788000","7788000",Windsor Rd & Vintage Green,38.53443858,-122.8167938,"58035","","","0","","America/Los_Angeles","0"
"7711110","7711110",Windsor Rd & Windsor Depot,38.54755278,-122.8168687,"58035","","","0","","America/Los_Angeles","0"
"7711200","7711200",Windsor River Rd & Old Red Hwy,38.54721113,-122.8119284,"58035","","","0","","America/Los_Angeles","0"
"7703400","7703400",Windsor River Rd & Old Redwood Hwy,38.54742656,-122.8115173,"58035","","","0","","America/Los_Angeles","0"
"7711000","7711000",Windsor River Rd & Spencer St,38.54716554,-122.8206467,"58035","","","0","","America/Los_Angeles","0"
"7703600","7703600",Windsor River Rd & Starr Rd,38.5473518,-122.8252264,"58035","","","0","","America/Los_Angeles","0"
"7711100","7711100",Windsor River Rd (Windsor Depot),38.54713147,-122.8162381,"58035","","","0","","America/Los_Angeles","0"
"7703500","7703500",Windsor River Rd (Windsor Depot),38.54732459,-122.8161523,"58035","","","0","","America/Los_Angeles","0"
"7730800","7730800",W MacArthur & Broadway (Ac Sonoma Vly HS),38.28492627,-122.4599472,"58039","","","0","","America/Los_Angeles","0"
"7730210","7730210",W MacArthur St & 4th St West,38.2854713636,-122.4665340798,"58039","","","0","","America/Los_Angeles","0"
"7781700","7781700",W Napa St & 5th St W (ac Safeway),38.29293888,-122.4671215,"58039","","","0","","America/Los_Angeles","0"
"7782800","7782800",W Napa St & 5th St W (front of Safeway),38.29277243,-122.4674966,"58039","","","0","","America/Los_Angeles","0"
"7721200","7721200",Wright Rd & Sebastopol Rd,38.4261596815,-122.7691725583,"58034","","","0","","America/Los_Angeles","0"
"7764600","7764600",W Robles Ave & Standish Ave,38.39436797,-122.7240261,"58034","","","0","","America/Los_Angeles","0"
"7767000","7767000",W Robles Ave & Standish Ave,38.39448975,-122.7246297,"58034","","","0","","America/Los_Angeles","0"